icao,iata,synop,name,state,country,lat,lon,elev,priority,srcid
,,41217,ABU DHABI INTERNATIONAL AIRPOR,,AE,24.4333,54.65,16,5,41217
,,40911,MAZAR-I-SHARIF,,AF,36.7,67.2,378,5,40911
,,40913,KUNDUZ,,AF,36.6667,68.9167,433,5,40913
,,40948,KABUL AIRPORT,,AF,34.55,69.2167,1791,5,40948
,,40990,KANDAHAR AIRPORT,,AF,31.5,65.85,1010,5,40990
,,60390,DAR-EL-BEIDA,,AG,36.6899,3.2166,25,5,60390
,,60549,MECHERIA,,AG,33.5458,-0.2353,1123,5,60549
,,60571,BECHAR,,AG,31.6543,-2.2524,808,5,60571
,,60630,IN-SALAH,,AG,27.2537,2.5116,268,5,60630
,,60656,TINDOUF,,AG,27.7041,-8.1692,443,5,60656
,,60680,TAMANRASSET,,AG,22.8253,5.4525,1372,5,60680
,,60686,BORDJ-BADJ-MOKHTAR,,AG,21.3761,0.932,395,5,60686
,,37789,YEREVAN AERO,,AM,40.2172,44.4997,1139,5,37789
,,66160,LUANDA,,AO,-8.8481,13.2353,70,5,66160
,,66285,LUENA,,AO,-11.7684,19.898,1356,5,66285
,,66390,LUBANGO SA DA BANDEIRA,,AO,-14.9287,13.5709,1760,5,66390
,,91765,PAGO PAGO/INT.AIRP. AMERICAN S,,AQ,-14.3383,-170.7191,5,5,91765
,,87047,SALTA AERO,,AR,-24.8443,-65.4758,1221,5,87047
,,87155,RESISTENCIA AERO,,AR,-27.4389,-59.046,53,5,87155
,,87244,VILLA DE MARIA DEL RIO SECO,,AR,-29.9058,-63.7276,341,5,87244
,,87344,CORDOBA AERO,,AR,-31.2966,-64.2119,493,5,87344
,,87418,MENDOZA AERO,,AR,-32.8438,-68.7963,705,5,87418
,,87576,EZEIZA AERO,,AR,-34.8186,-58.5423,20,5,87576
,,87582,AEROPARQUE AERO,,AR,-34.5589,-58.4198,6,5,87582
,,87585,BUENOS AIRES OBSERVATORIO,,AR,-34.5902,-58.484,25,5,87585
,,87623,SANTA ROSA AERO,,AR,-36.5931,-64.2799,190,5,87623
,,87715,NEUQUEN AERO,,AR,-38.952,-68.1367,270,5,87715
,,87860,COMODORO RIVADAVIA AERO,,AR,-45.7923,-67.4619,46,5,87860
,,94120,DARWIN AIRPORT,,AS,-12.4239,130.8925,31,5,94120
,,94155,EAST ARNHEM,,AS,-12.3845,136.7959,112,5,94155
,,94170,WEIPA AERO,,AS,-12.6778,141.9208,19,5,94170
,,94203,BROOME AIRPORT,,AS,-17.9475,122.2353,17,5,94203
,,94212,HALLS CREEK AIRPORT,,AS,-18.2292,127.6636,410,5,94212
,,94238,TENNANT CREEK AIRPORT,,AS,-19.6422,134.1833,376,5,94238
,,94287,CAIRNS AERO,,AS,-16.8736,145.7458,3,5,94287
,,94294,TOWNSVILLE AERO,,AS,-19.2483,146.7661,5,5,94294
,,94299,WILLIS ISLAND,,AS,-16.2833,149.965,9,5,94299
,,94300,CARNARVON AIRPORT,,AS,-24.8878,113.67,4,5,94300
,,94302,LEARMONTH AIRPORT,,AS,-22.2405,114.0967,6,5,94302
,,94312,PORT HEDLAND AIRPORT,,AS,-20.3725,118.6317,10,5,94312
,,94326,ALICE SPRINGS AIRPORT,,AS,-23.795,133.8889,545,5,94326
,,94332,MOUNT ISA AERO,,AS,-20.6778,139.4875,341,5,94332
,,94346,LONGREACH AERO,,AS,-23.4372,144.2769,191,5,94346
,,94367,MACKAY M.O,,AS,-21.1172,149.2169,30,5,94367
,,94374,ROCKHAMPTON AERO,,AS,-23.3753,150.4775,10,5,94374
,,94403,GERALDTON AIRPORT,,AS,-28.8044,114.6989,36,5,94403
,,94430,MEEKATHARRA AIRPORT,,AS,-26.6136,118.5372,522,5,94430
,,94461,GILES METEOROLOGICAL OFFICE,,AS,-25.0342,128.3011,580,5,94461
,,94510,CHARLEVILLE AERO,,AS,-26.4139,146.2558,305,5,94510
,,94578,BRISBANE AERO,,AS,-27.3917,153.1292,4,5,94578
,,94610,PERTH AIRPORT,,AS,-31.9275,115.9764,20,5,94610
,,94637,KALGOORLIE-BOULDER AIRPORT,,AS,-30.7847,121.4533,366,5,94637
,,94638,ESPERANCE,,AS,-33.83,121.8925,25,5,94638
,,94647,EUCLA,,AS,-31.6667,128.8667,101,5,94647
,,94653,CEDUNA AMO,,AS,-32.1297,133.6975,23,5,94653
,,94659,WOOMERA AERODROME,,AS,-31.1558,136.8053,167,5,94659
,,94672,ADELAIDE AIRPORT,,AS,-34.9525,138.5203,6,5,94672
,,94693,MILDURA AIRPORT,,AS,-34.2358,142.0867,50,5,94693
,,94711,COBAR MO,,AS,-31.4839,145.8294,260,5,94711
,,94750,NOWRA RAN AIR STATION AWS,,AS,-34.9469,150.5353,122,5,94750
,,94767,SYDNEY AIRPORT AMO,,AS,-33.9464,151.173,6,5,94767
,,94776,WILLIAMTOWN RAAF,,AS,-32.7933,151.8358,9,5,94776
,,94791,COFFS HARBOUR MO,,AS,-30.3108,153.1186,5,5,94791
,,94802,ALBANY AIRPORT,,AS,-34.9414,117.8022,71,5,94802
,,94821,MOUNT GAMBIER AERO,,AS,-37.7472,140.7739,64,5,94821
,,94866,MELBOURNE AIRPORT,,AS,-37.6656,144.8322,132,5,94866
,,94910,WAGGA WAGGA AMO,,AS,-35.1583,147.4572,220,5,94910
,,94975,HOBART AIRPORT WEST,,AS,-42.8339,147.5033,4,5,94975
,,94995,LORD HOWE ISLAND AERO,,AS,-31.5422,159.0786,5,5,94995
,,94998,MACQUARIE ISLAND,,AS,-54.4994,158.9369,6,5,94998
,,95527,MOREE AERO,,AS,-29.4897,149.8472,213,5,95527
,,94001,YEPPOON (BARMARYEE),,AT,-23.127,150.701,40,5,94001
,,94005,CLIFTON BEACH,,AT,-42.9677,147.5342,10,5,94005
,,94775,TOCAL AWS,,AT,-32.6297,151.5919,30,5,94775
,,95282,WOODSTOCK,,AT,-19.6337,146.8578,63,5,95282
,,95954,KENNAOOK / CAPE GRIM,,AT,-40.6792,144.6903,86,5,95954
,,11010,LINZ/HOERSCHING-FLUGHAFEN,,AU,48.2353,14.1881,298,5,11010
,,11035,WIEN/HOHE WARTE (11035-0),,AU,48.2486,16.3564,198,5,11035
,,11120,INNSBRUCK-FLUGHAFEN,,AU,47.2603,11.3439,581,5,11120
,,11240,GRAZ-THALERHOF-FLUGHAFEN,,AU,46.9806,15.44,340,5,11240
,,89002,GEORG VON NEUMAYER,,AY,-70.6667,-8.25,50,5,89002
,,89009,AMUNDSEN SCOTT,,AY,-90.0,0.0,2835,5,89009
,,89022,HALLEY,,AY,-75.445,-26.2181,30,5,89022
,,89055,BASE MARAMBIO,,AY,-64.2414,-56.625,208,5,89055
,,89056,CENTRO MET. ANTI RTICO PRESI,,AY,-62.1931,-58.9825,45,5,89056
,,89062,ROTHERA,,AY,-67.5703,-68.1236,33,5,89062
,,89063,VERNADSKY,,AY,-65.25,-64.2667,11,5,89063
,,89512,NOVOLAZAREVSKAJA,,AY,-70.7678,11.8317,118,5,89512
,,89532,SYOWA,,AY,-69.0053,39.5811,29,5,89532
,,89564,MAWSON,,AY,-67.6017,62.8753,9,5,89564
,,89571,DAVIS,,AY,-68.5744,77.9672,18,5,89571
,,89592,MIRNYJ (89592-0),,AY,-66.5519,93.0147,43,5,89592
,,89611,CASEY,,AY,-66.2825,110.523,40,5,89611
,,89625,CONCORDIA,,AY,-75.1017,123.4119,3233,5,89625
,,89642,DUMONT D'URVILLE,,AY,-66.663,140.0011,43,5,89642
,,89662,MARIO ZUCHELLI STATION,,AY,-74.6958,164.0922,92,5,89662
,,89664,MCMURDO,,AY,-77.85,166.6667,24,5,89664
,,89859,JANG BOGO,,AY,-74.6222,164.228,28,5,89859
,,78954,GRANTLEY ADAMS,,BB,13.0716,-59.4922,56,5,78954
,,68032,MAUN,,BC,-19.9833,23.4167,945,5,68032
,,68240,SERETSE KHAMA INTERNATIONAL AI,,BC,-24.55,25.9167,1005,5,68240
,,78016,L F WADE INTERNATIONAL AIRPORT,,BD,32.3669,-64.6772,4,5,78016
,,6447,UCCLE,,BE,50.7969,4.3581,99,5,6447
,,6458,BEAUVECHAIN,,BE,50.7456,4.7633,112,5,6458
,,78073,NASSAU AIRPORT NEW PROVIDENCE,,BF,25.05,-77.4667,7,5,78073
,,41859,RANGPUR,,BG,25.7333,89.2333,33,5,41859
,,41883,BOGRA,,BG,24.85,89.3667,18,5,41883
,,41891,SYLHET,,BG,24.9,91.8833,34,5,41891
,,41907,ISHWARDI,,BG,24.1333,89.05,13,5,41907
,,41923,DHAKA,,BG,23.7667,90.3833,8,5,41923
,,41936,JESSORE,,BG,23.1833,89.1667,6,5,41936
,,41943,FENI (41943-0),,BG,23.0333,91.4167,6,5,41943
,,41950,BARISAL,,BG,22.75,90.3667,3,5,41950
,,41977,CHITTAGONG (AMBAGAN),,BG,22.35,91.8167,33,5,41977
,,41992,COX'S BAZAR,,BG,21.4333,91.9333,2,5,41992
,,78583,BELIZE/PHILLIP GOLDSTON INTL.,,BH,17.5333,-88.3,5,5,78583
,,48042,MANDALAY,,BM,21.9421,96.0886,79,5,48042
,,48097,YANGON,,BM,16.8647,96.1536,20,5,48097
,,65306,KANDI,,BN,11.1333,2.9333,290,5,65306
,,65330,PARAKOU,,BN,9.35,2.6167,392,5,65330
,,65344,COTONOU,,BN,6.35,2.3833,5,5,65344
,,26850,MINSK,,BO,53.9286,27.6353,223,5,26850
,,33008,BREST (33008-0),,BO,52.1167,23.6858,145,5,33008
,,33041,GOMEL (33041-0),,BO,52.4019,30.9631,126,5,33041
,,91517,HONIARA,,BP,-9.4167,159.9667,55,5,91517
,,81729,MANACAPURU,,BR,-3.2947,-60.6283,36,5,81729
,,82022,BOA VISTA (AERO),,BR,2.849,-60.6943,83,5,82022
,,82026,TIRIOS (AERO),,BR,2.22,-55.93,325,5,82026
,,82099,MACAPA (AERO),,BR,0.05,-51.0667,16,5,82099
,,82107,SAO GABRIEL DA CACHOEIRA,,BR,-0.1167,-66.9667,79,5,82107
,,82193,BELEM (AERO),,BR,-1.3833,-48.4833,16,5,82193
,,82244,SANTAREM (AERO),,BR,-2.4333,-54.7167,72,5,82244
,,82281,SAO LUIS (AERO),,BR,-2.6,-44.2333,53,5,82281
,,82332,MANAUS (AERO),,BR,-3.15,-59.9833,84,5,82332
,,82397,FORTALEZA (82397-0),,BR,-3.7667,-38.6,26,5,82397
,,82400,FERNANDO DE NORONHA (AERO),,BR,-3.85,-32.4167,56,5,82400
,,82411,TABATINGA (AERO),,BR,-4.25,-69.9333,81,5,82411
,,82532,MANICORE (AERO),,BR,-5.8167,-61.2833,53,5,82532
,,82599,NATAL (AERO),,BR,-5.9167,-35.25,52,5,82599
,,82678,FLORIANO (82678-0),,BR,-6.7667,-43.0167,127,5,82678
,,82705,CRUZEIRO DO SUL (AERO),,BR,-7.5833,-72.7667,199,5,82705
,,82765,CAROLINA (82765-0),,BR,-7.3333,-47.4667,193,5,82765
,,82824,PORTO VELHO (AERO),,BR,-8.7667,-63.9167,102,5,82824
,,82900,RECIFE (82900-0),,BR,-8.05,-34.9167,7,5,82900
,,82917,RIO BRANCO (AERO),,BR,-9.87,-67.9,193,5,82917
,,82965,ALTA FLORESTA (AERO),,BR,-9.8667,-56.1,288,5,82965
,,82983,PETROLINA (82983-0),,BR,-9.3833,-40.4833,370,5,82983
,,83208,VILHENA (AERO),,BR,-12.7,-60.1,612,5,83208
,,83229,SALVADOR (83229-0),,BR,-13.0167,-38.5167,52,5,83229
,,83288,BOM JESUS DA LAPA (83288-0),,BR,-13.2511,-43.4053,447,5,83288
,,83362,CUIABA (AERO),,BR,-15.65,-56.1,187,5,83362
,,83378,BRASILIA (AERO),,BR,-15.8729,-47.9241,1061,5,83378
,,83498,CARAVELAS (83498-0),,BR,-17.7333,-39.25,3,5,83498
,,83525,UBERLANDIA (AERO),,BR,-18.8833,-48.2167,943,5,83525
,,83554,CORUMBA,,BR,-19.0,-57.6667,142,5,83554
,,83566,CONFINS (AERO),,BR,-19.6167,-43.9667,827,5,83566
,,83612,CAMPO GRANDE (AERO),,BR,-20.4667,-54.6667,567,5,83612
,,83649,VITORIA (AERO),,BR,-20.2667,-40.2833,4,5,83649
,,83650,ILHA DE TRINDADE (CHM),,BR,-20.5,-29.3167,5,5,83650
,,83746,GALEAO (AERO),,BR,-22.8167,-43.25,6,5,83746
,,83768,LONDRINA (AERO),,BR,-23.3333,-51.1333,569,5,83768
,,83779,MARTE (AERO),,BR,-23.5,-46.6333,722,5,83779
,,83827,FOZ DO IGUACU (AERO),,BR,-25.6003,-54.485,239,5,83827
,,83840,CURITIBA (AERO),,BR,-25.5167,-49.1667,908,5,83840
,,83899,FLORIANOPOLIS (AERO),,BR,-27.6667,-48.55,5,5,83899
,,83928,URUGUAIANA (AERO),,BR,-29.7833,-57.0333,74,5,83928
,,83937,SANTA MARIA (AERO),,BR,-29.7167,-53.7,85,5,83937
,,83971,PORTO ALEGRE/SALGAD,,BR,-30.0,-51.1833,3,5,83971
,,15614,SOFIA (OBSERV.),,BU,42.65,23.3833,595,5,15614
,,96315,BRUNEI AIRPORT,,BX,4.9333,114.9333,22,5,96315
,,96323,KUALA BELAIT,,BX,4.583,114.2,3,5,96323
CYVQ,YVQ,71043,Norman Wells,NT,CA,65.28,-126.8,74,5,YVQ
CYUX,,71081,Hall Beach,NU,CA,68.79,-81.25,8,5,
CWLT,WLT,71082,Alert,NU,CA,82.5,-62.34,63,5,WLT
CYZT,YZT,71109,Port Hardy,BC,CA,50.69,-127.37,22,0,YZT
CWSE,WSE,71119,Edmonton,AB,CA,53.5333333333,-114.083333333,766,8,WSE
CYLW,YLW,71203,Kelowna,BC,CA,49.97,-119.39,430,1,YLW
,,71569,BRATT'S LAKE CLIMATE; SASK,,CA,50.2006,-104.7113,588,5,71569
CWSA,WSA,71600,Sable Island,NS,CA,43.94,-60.02,4,5,WSA
CYQI,YQI,71603,Yarmouth,NS,CA,43.84,-66.08,43,5,YQI
,,71701,GAGETOWN A; NB,,CA,45.8333,-66.4333,50,5,71701
CWMW,WMW,71722,Maniwaki,QB,CA,46.39,-75.96,170,8,WMW
,,71802,ST JOHN'S WEST UA; NFLD,,CA,47.5167,-52.7833,112,5,71802
CYZV,YZV,71811,Sept Iles,QB,CA,50.23,-66.27,55,5,YZV
CYJT,YJT,71815,Stephenville,NF,CA,48.54,-58.55,26,5,YJT
CYYR,YYR,71816,Goose Bay,NF,CA,53.33,-60.42,49,5,YYR
CYAH,YAH,71823,La Grande Iv,QB,CA,53.76,-73.67,306,5,YAH
CYMO,YMO,71836,Moosonee,ON,CA,51.289,-80.614,10,5,YMO
,,71843,WINNIPEG UA; MAN,,CA,49.8,-97.1333,227,5,71843
CWPL,WPL,71845,Pickle Lake,ON,CA,51.48,-90.2,373,5,WPL
CYQD,YQD,71867,The Pas,MB,CA,53.98,-101.1,271,5,YQD
,,71893,CFB - COMOX; BC,,CA,49.7167,-124.9,25,5,71893
CYVP,YVP,71906,Kuujjuaq,QB,CA,58.11,-68.42,60,5,YVP
CYPH,YPH,71907,Inukjuak,QB,CA,58.46,-78.12,3,5,YPH
CYXS,YXS,71908,Prince George,BC,CA,53.89,-122.68,691,0,YXS
CYFB,YFB,71909,Frobisher/Iqaluit,NU,CA,63.76,-68.54,34,5,YFB
CYYQ,YYQ,71913,Churchill,MB,CA,58.73,-94.07,29,5,YYQ
CYZS,YZS,71915,Coral Harbour,NU,CA,64.2,-83.37,64,5,YZS
CWEU,,71917,Eureka,NU,CA,80.0,-85.93,10,5,
CYRB,YRB,71924,Resolute,NU,CA,74.72,-94.95,67,5,YRB
CYCB,YCB,71925,Cambridge Bay,NU,CA,69.1,-105.1,27,5,YCB
CYBK,YBK,71926,Baker Lake,NU,CA,64.3,-96.0,18,5,YBK
CYSM,YSM,71934,Fort Smith,NT,CA,60.01,-112.0,203,5,YSM
CYYE,YYE,71945,Fort Nelson,BC,CA,58.84,-122.6,382,5,YYE
CYEV,YEV,71957,Inuvik,NT,CA,68.3,-133.5,68,5,YEV
CYXY,YXY,71964,Whitehorse,YK,CA,60.73,-135.07,703,5,YXY
,,73033,VERNON UA; BC,,CA,50.2393,-119.2898,564,5,73033
,,73111,KAPUSKASING UA; ON,,CA,49.405,-82.4428,225,5,73111
,,64700,NDJAMENA,,CD,12.08,15.02,295,5,64700
,,64750,SARH,,CD,9.15,18.3833,365,5,64750
,,43413,MANNAR,,CE,8.9833,79.9167,3,5,43413
,,43418,TRINCOMALEE,,CE,8.6394,81.2028,36,5,43418
,,43424,PUTTALAM,,CE,8.0333,79.8333,2,5,43424
,,43466,COLOMBO,,CE,6.9,79.8667,7,5,43466
,,43475,POTTUVIL,,CE,6.8833,81.8333,4,5,43475
,,43497,HAMBANTOTA,,CE,6.1223,81.1287,15,5,43497
,,64450,BRAZZAVILLE /MAYA-MAYA,,CF,-4.2636,15.2429,314,5,64450
,,64458,OUESSO,,CF,1.6125,16.0402,352,5,64458
,,50527,HAILAR (50527-0),,CH,49.25,119.7,653,5,50527
,,50557,NENJIANG,,CH,49.1667,125.2333,243,5,50557
,,50774,YICHUN (50774-0),,CH,47.7,128.8333,264,5,50774
,,50953,HARBIN (50953-0),,CH,45.9333,126.5667,118,5,50953
,,51076,ALTAY,,CH,47.7333,88.0833,737,5,51076
,,51156,HOBOKSAR,,CH,46.81,85.7489,1323,5,51156
,,51243,KARAMAY,,CH,45.6167,84.85,1323,5,51243
,,51431,YINING,,CH,43.95,81.3333,664,5,51431
,,51463,WU LU MU QI (51463-0),,CH,43.7833,87.65,919,5,51463
,,51644,KUQA,,CH,41.7167,82.95,1083,5,51644
,,51656,KORLA,,CH,41.7294,85.8186,903,5,51656
,,51709,KASHI,,CH,39.4833,75.75,1386,5,51709
,,51777,RUOQIANG,,CH,39.0333,88.1667,889,5,51777
,,51828,HOTAN,,CH,37.1333,79.9333,1375,5,51828
,,51839,MINFENG,,CH,37.0667,82.7167,1409,5,51839
,,52203,HAMI,,CH,42.8167,93.5167,739,5,52203
,,52267,EJIN QI,,CH,41.95,101.0667,941,5,52267
,,52323,MAZONG SHAN,,CH,41.8,97.0333,1770,5,52323
,,52418,DUNHUANG,,CH,40.15,94.6833,1140,5,52418
,,52533,JIUQUAN,,CH,39.7667,98.4833,1478,5,52533
,,52681,MINQIN,,CH,38.6333,103.0833,1367,5,52681
,,52818,GOLMUD,,CH,36.4167,94.9,2809,5,52818
,,52836,DOULAN,,CH,36.3,98.1,3190,5,52836
,,52866,XINING (52866-0),,CH,36.65,101.7167,2434,5,52866
,,52983,YU ZHONG,,CH,35.8667,104.15,1875,5,52983
,,53068,ERENHOT,,CH,43.65,112.0,966,5,53068
,,53336,HALIUT,,CH,41.5667,108.5167,1290,5,53336
,,53463,HOHHOT,,CH,40.85,111.5667,1153,5,53463
,,53513,LINHE,,CH,40.7333,107.3667,1041,5,53513
,,53543,DONGSHENG,,CH,39.8333,109.9833,1459,5,53543
,,53614,YINCHUAN,,CH,38.4667,106.2,1112,5,53614
,,53772,TAIYUAN (53772-0),,CH,37.6167,112.5833,776,5,53772
,,53798,XINGTAI,,CH,37.1808,114.3589,184,5,53798
,,53845,YAN AN,,CH,36.5667,109.45,958,5,53845
,,53915,PINGLIANG,,CH,35.5333,106.6667,1348,5,53915
,,54102,XILIN HOT,,CH,43.95,116.1167,1004,5,54102
,,54135,TONGLIAO,,CH,43.66,122.35,173,5,54135
,,54161,CHANGCHUN,,CH,43.9,125.2167,238,5,54161
,,54218,CHIFENG (54218-0),,CH,42.3,118.8333,668,5,54218
,,54292,YANJI,,CH,42.8667,129.5,258,5,54292
,,54340,SHENYANG,,CH,41.543,123.61,77,5,54340
,,54374,LINJIANG,,CH,41.8,126.8833,385,5,54374
,,54401,ZHANGJIAKOU,,CH,40.7833,114.8833,774,5,54401
,,54511,BEIJING,,CH,39.9333,116.2833,32,5,54511
,,54539,LETING,,CH,39.4333,118.9,12,5,54539
,,54662,DALIAN,,CH,38.9,121.6333,97,5,54662
,,54727,ZHANGQIU,,CH,36.65,117.5,263,5,54727
,,54857,QINGDAO,,CH,36.0667,120.3333,77,5,54857
,,55299,NAGQU,,CH,31.4833,92.0667,4508,5,55299
,,55591,LHASA,,CH,29.6667,91.1333,3650,5,55591
,,56029,YUSHU (56029-0),,CH,0.0033,96.9667,3716,5,56029
,,56046,DARLAG,,CH,33.75,99.65,3968,5,56046
,,56080,HEZUO,,CH,0.0035,102.9,2910,5,56080
,,56137,QAMDO (56137-0),,CH,31.15,97.1667,3307,5,56137
,,56146,GARZE,,CH,31.6333,99.9833,3394,5,56146
,,56187,WENJIANG (56187-0),,CH,30.75,103.8667,549,5,56187
,,56492,YIBIN,,CH,28.7667,104.6,502,5,56492
,,56571,XICHANG,,CH,27.9,102.2667,1599,5,56571
,,56651,LIJING,,CH,26.8333,100.2167,2382,5,56651
,,56691,WEINING,,CH,26.8667,104.2833,2236,5,56691
,,56739,TENGCHONG,,CH,24.9844,98.5056,1696,5,56739
,,56778,KUNMING,,CH,25.0167,102.6833,1892,5,56778
,,56964,SIMAO,,CH,22.8161,100.9911,1416,5,56964
,,56985,MENGZI,,CH,23.4444,103.3278,1313,5,56985
,,57067,LUSHI,,CH,34.0803,111.0728,659,5,57067
,,57083,ZHENGZHOU,,CH,34.7167,113.65,111,5,57083
,,57127,HANZHONG,,CH,33.0667,107.0333,509,5,57127
,,57131,JINGHE (57131-0),,CH,34.4333,108.9667,411,5,57131
,,57178,NANYANG,,CH,33.1,112.4833,181,5,57178
,,57245,ANKANG,,CH,32.7167,109.0333,291,5,57245
,,57447,ENSHI,,CH,30.2833,109.4667,458,5,57447
,,57461,YICHANG,,CH,30.7333,111.3667,257,5,57461
,,57494,WUHAN,,CH,30.6,114.05,24,5,57494
,,57516,CHONGQING (57516-0),,CH,29.5833,106.4667,541,5,57516
,,57541,XUAN' EN,,CH,29.99,109.47,598,5,57541
,,57679,CHANGSHA (57679-0),,CH,28.2,113.0833,120,5,57679
,,57687,CHANGSHA (57687-0),,CH,28.1167,112.7833,119,5,57687
,,57749,HUAIHUA,,CH,27.5667,110.0,261,5,57749
,,57816,GUIYANG (57816-0),,CH,26.5833,106.7333,1223,5,57816
,,57957,GUILIN,,CH,25.3333,110.3,166,5,57957
,,57972,CHENZHOU,,CH,25.7353,112.9739,368,5,57972
,,57993,GANZHOU,,CH,25.85,114.9333,125,5,57993
,,58027,XUZHOU,,CH,34.2833,117.15,42,5,58027
,,58150,SHEYANG,,CH,33.75,120.3,3,5,58150
,,58203,FUYANG,,CH,32.8667,115.7333,33,5,58203
,,58238,NANJING,,CH,31.9333,118.9,32,5,58238
,,58362,SHANGHAI (BAOSHAN),,CH,31.4167,121.45,9,5,58362
,,58424,ANQING,,CH,30.6167,116.9667,62,5,58424
,,58457,HANGZHOU,,CH,30.2333,120.1667,43,5,58457
,,58606,NANCHANG,,CH,28.6,115.9167,50,5,58606
,,58633,QU XIAN,,CH,28.9667,118.8667,82,5,58633
,,58665,HONGJIA,,CH,28.6167,121.4167,4,5,58665
,,58725,SHAOWU,,CH,27.3333,117.5111,371,5,58725
,,58847,FUZHOU,,CH,26.0833,119.2833,85,5,58847
,,59023,HECHI,,CH,24.7,108.0333,261,5,59023
,,59134,XIAMEN,,CH,24.4833,118.0833,139,5,59134
,,59211,BAISE,,CH,23.9,106.6,177,5,59211
,,59265,WUZHOU,,CH,23.4833,111.3,120,5,59265
,,59280,QINGYUAN (59280-0),,CH,23.7167,113.0833,79,5,59280
,,59293,HEYUAN,,CH,23.78,114.77,115,5,59293
,,59316,SHANTOU (59316-0),,CH,23.4,116.6833,4,5,59316
,,59431,NANNING/WUXU,,CH,22.8167,108.35,73,5,59431
,,59644,BEIHAI,,CH,21.4475,109.1836,10,5,59644
,,59663,YANGJIANG,,CH,21.8333,111.9667,91,5,59663
,,59758,HAIKOU,,CH,20.0333,110.35,18,5,59758
,,59948,SANYA,,CH,18.2167,109.5833,420,5,59948
,,85442,ANTOFAGASTA,,CI,-23.4536,-70.4453,112,5,85442
,,85469,ISLA DE PASCUA,,CI,-27.1605,-109.4272,69,5,85469
,,85586,SANTO DOMINGO AD.,,CI,-33.655,-71.6142,77,5,85586
,,85799,PUERTO MONTT,,CI,-41.435,-73.0978,87,5,85799
,,85934,PUNTA ARENAS,,CI,-53.0033,-70.845,36,5,85934
,,78384,OWEN ROBERTS AIRPORT GRAND CAY,,CJ,19.2944,-81.3632,3,5,78384
,,96996,COCOS ISLAND AERO,,CK,-12.1892,96.8344,3,5,96996
,,64870,NGAOUNDERE,,CM,7.35,13.5667,1114,5,64870
,,67002,HAHAYA INT. AIRPORT,,CN,-11.5333,43.2667,29,5,67002
,,80001,SAN ANDRES (ISLA)/SESQUICENTEN,,CO,12.5833,-81.7167,1,5,80001
,,80028,BARRANQUILLA/ERNESTO CORTISSOZ,,CO,10.8833,-74.7833,14,5,80028
,,80035,RIOHACHA/ALMIRANTE PADILLA,,CO,11.5333,-72.9333,4,5,80035
,,80094,BUCARAMANGA/PALONEGRO,,CO,7.1,-73.2,1189,5,80094
,,80210,PEREIRA/MATECANA,,CO,4.8167,-75.7333,1342,5,80210
,,80222,BOGOTA/ELDORADO,,CO,4.7,-74.15,2547,5,80222
,,80259,CALI/ALFONSO BONILLA ARAGON,,CO,3.55,-76.3833,961,5,80259
,,80398,LETICIA/VASQUEZ COBO,,CO,-4.1667,-69.95,84,5,80398
,,78762,AEROPUERTO INTERNACIONAL JUAN,,CS,9.9833,-84.1833,908,5,78762
,,64650,BANGUI,,CT,4.4,18.5167,365,5,64650
,,8594,SAL,,CV,16.7419,-22.9489,54,5,8594
,,91843,RAROTONGA (91843-0),,CW,-21.2,-159.8166,7,5,91843
,,17600,PAPHOS AP,,CY,34.7194,32.4847,8,5,17600
,,17607,ATHALASSA,,CY,35.1408,33.3964,162,5,17607
,,17609,LARNACA AIRPORT,,CY,34.8733,33.6172,1,5,17609
,,6060,FLYVESTATION KARUP,,DA,56.2933,9.1139,52,5,6060
,,78486,SANTO DOMINGO (78486-0),,DR,18.4734,-69.8705,14,5,78486
,,84008,SAN CRISTOBAL (GALAPAGOS),,EC,-0.9,-89.6,8,5,84008
,,84132,NUEVO ROCAFUERTE (84132-0),,EC,-0.92,-75.403,205,5,84132
,,84203,GUAYAQUIL AEROPUERTO,,EC,-2.1581,-79.8839,6,5,84203
,,62306,MERSA MATRUH,,EG,31.3253,27.2217,29,5,62306
,,62337,EL ARISH,,EG,31.0822,33.8289,36,5,62337
,,62378,HELWAN,,EG,29.8628,31.3492,139,5,62378
,,62403,SOUTH OF VALLEY UNIVERSITY,,EG,26.2003,32.7467,96,5,62403
,,62414,ASSWAN,,EG,23.9644,32.82,201,5,62414
,,62423,FARAFRA,,EG,27.0583,27.9892,82,5,62423
,,3953,VALENTIA OBSERVATORY (3953-0),,EI,51.9381,-10.2433,23,5,3953
,,26038,RADAR WRM 200,,EN,59.3983,24.6042,33,5,26038
,,63450,ADDIS ABABA-BOLE,,ET,9.0333,38.75,2354,5,63450
,,11520,PRAHA-LIBUS,,EZ,50.0078,14.4469,302,5,11520
,,11747,PROSTEJOV,,EZ,49.4525,17.1347,214,5,11747
,,81405,CAYENNE MATOURY,,FG,4.8222,-52.3653,8,5,81405
,,2836,SODANKYLA ARCTIC RESEARCH CENT,,FI,67.3666,26.629,179,5,2836
,,2935,JYVASKYLA AIRPORT,,FI,62.3976,25.6709,139,5,2935
,,2963,JOKIOINEN OBSERVATORY,,FI,60.814,23.4982,104,5,2963
,,91680,NADI AIRPORT,,FJ,-17.7597,177.4447,22,5,91680
,,88889,MOUNT PLEASANT AIRPORT,,FK,-51.82,-58.4481,74,5,88889
,,91334,TRUK/CAROLINE IS.,,FM,7.45,151.8333,3,5,91334
,,91348,PONAPE/CAROLINE IS.,,FM,6.95,158.2,38,5,91348
,,91413,YAP/CAROLINE IS.,,FM,9.4833,138.0667,15,5,91413
,,6011,TORSHAVN,,FO,62.0231,-6.7647,54,5,6011
,,91925,HIVA-OA,,FP,-9.8061,-139.0355,51,5,91925
,,91938,TAHITI-FAAA,,FP,-17.5553,-149.6144,2,5,91938
,,91945,HEREHERETUE,,FP,-19.9061,-144.9494,2,5,91945
,,91948,MANGAREVA,,FP,-23.1303,-134.9652,91,5,91948
,,91954,TUBUAI ISLAND,,FP,-23.35,-149.4833,2,5,91954
,,91958,RAPA,,FP,-27.6183,-144.3347,2,5,91958
,,7110,BREST-GUIPAVAS,,FR,48.45,-4.3833,94,5,7110
,,7145,TRAPPES,,FR,48.7744,2.0097,167,5,7145
,,7180,NANCY/ESSEY,,FR,48.6833,6.2167,225,5,7180
,,7481,LYON-ST EXUPERY,,FR,45.7264,5.0778,250,5,7481
,,7510,BORDEAUX MERIGNAC,,FR,44.8306,-0.6914,51,5,7510
,,7645,NIMES-COURBESSAC,,FR,43.8569,4.4064,60,5,7645
,,7761,AJACCIO,,FR,41.9181,8.7928,6,5,7761
,,61996,MARTIN DE VIVIES,,FS,-37.7953,77.5692,27,5,61996
,,61998,PORT-AUX-FRANCAIS,,FS,-49.3522,70.2433,29,5,61998
,,64500,LIBREVILLE,,GB,0.45,9.4167,12,5,64500
,,8495,GIBRALTAR (8495-0),,GI,36.1519,-5.3494,5,5,8495
,,4202,PITUFFIK,,GL,76.5333,-68.75,77,5,4202
,,4220,AASIAAT,,GL,68.7081,-52.8517,43,5,4220
,,4270,MITTARFIK NARSARSUAQ,,GL,61.1667,-45.4167,34,5,4270
,,4320,DANMARKSHAVN,,GL,76.7694,-18.6681,11,5,4320
,,4339,ITTOQQORTOORMIIT,,GL,70.4844,-21.9511,70,5,4339
,,4360,TASIILAQ,,GL,65.6111,-37.6367,54,5,4360
,,4417,GEOSUMMIT,,GL,72.5803,-38.4586,3208,5,4417
,,10035,SCHLESWIG,,GM,54.5275,9.5487,42,5,10035
,,10113,NORDERNEY,,GM,53.7123,7.1519,11,5,10113
,,10184,GREIFSWALD,,GM,54.0967,13.4056,2,5,10184
,,10200,EMDEN,,GM,53.3881,7.2287,0,5,10200
,,10238,BERGEN,,GM,52.8152,9.9248,70,5,10238
,,10304,MEPPEN,,GM,52.7155,7.3176,19,5,10304
,,10393,LINDENBERG,,GM,52.2085,14.118,97,5,10393
,,10410,ESSEN (AEROLOGY),,GM,51.4041,6.9682,147,5,10410
,,10548,MEININGEN,,GM,50.5611,10.3771,450,5,10548
,,10618,IDAR-OBERSTEIN,,GM,49.6927,7.3263,376,5,10618
,,10739,STUTTGART (AEROLOGY),,GM,48.8281,9.2006,315,5,10739
,,10771,KUEMMERSBRUCK,,GM,49.4283,11.9016,415,5,10771
,,10868,OBERSCHLEII HEIM (AEROLOGY),,GM,48.2446,11.5525,484,5,10868
,,10954,ALTENSTADT,,GM,47.8342,10.8667,742,5,10954
,,10962,HOHENPEISSENBERG,,GM,47.8009,11.0108,977,5,10962
,,78897,LE RAIZET AERO,,GP,16.2639,-61.5164,11,5,78897
PGAC,,91212,Taguac,GU,US,13.55,144.816666667,111,8,
,,16622,THESSALONIKI (AIRPORT),,GR,40.529,22.9703,1,5,16622
,,16716,ATHINAI HELLINIKON,,GR,37.8897,23.7417,43,5,16716
,,16754,HERAKLEION (AIRPORT),,GR,35.3353,25.1819,35,5,16754
,,45004,KOWLOON (45004-0),,HK,22.3119,114.1728,64,5,45004
,,78721,SOTO CANO AB,,HO,14.3667,-87.6167,628,5,78721
,,14240,ZAGREB/MAKSIMIR,,HR,45.8219,16.0336,123,5,14240
,,14430,ZADAR RS,,HR,44.0969,15.3403,78,5,14430
,,12843,BUDAPEST/PESTSZENTLORINC,,HU,47.4333,19.1833,138,5,12843
,,12982,SZEGED,,HU,46.25,20.1,82,5,12982
,,4089,EGILSSTADIR,,IC,65.2762,-14.4046,23,5,4089
,,96009,LHOKSEUMAWE/MALIKUSSALEH,,ID,5.2287,96.9475,28,5,96009
,,96011,BANDA ACEH/BLANG BINTANG,,ID,5.5224,95.4168,19,5,96011
,,96015,MEULABOH/CUT NYAK DHIEN,,ID,4.25,96.1167,90,5,96015
,,96035,KUALANAMU MEDAN,,ID,3.6403,98.8786,25,5,96035
,,96073,SIBOLGA/PINANGSORI,,ID,1.5533,98.8833,10,5,96073
,,96075,GUNUNG SITOLI/BINAKA,,ID,1.1649,97.7036,7,5,96075
,,96091,TANJUNG PINANG/KIJANG,,ID,0.9186,104.53,17,5,96091
,,96109,PEKAN BARU/SIMPANGTIGA,,ID,0.4667,101.45,31,5,96109
,,96145,TAREMPA,,ID,3.2149,106.2198,1,5,96145
,,96147,RANAI,,ID,3.912,108.3935,2,5,96147
,,96163,MIA PADANG,,ID,-0.7936,100.2891,5,5,96163
,,96171,RENGAT/JAPURA,,ID,-0.3493,102.3339,19,5,96171
,,96179,SINGKEP/DABO,,ID,-0.4789,104.5777,24,5,96179
,,96195,JAMBI/SULTAN TAHA,,ID,-1.6333,103.65,25,5,96195
,,96207,KERINCI/DEPATI PARBO,,ID,-2.0939,101.4698,782,5,96207
,,96221,PALEMBANG/ST. M. BADARUDIN II,,ID,-2.9,104.7,14,5,96221
,,96237,PANGKAL PINANG,,ID,-2.1667,106.1333,33,5,96237
,,96249,TANJUNG PANDAN/BULUH TUMBANG,,ID,-2.75,107.75,50,5,96249
,,96253,BENGKULU/PADANG KEMILING,,ID,-3.8833,102.3333,16,5,96253
,,96295,TANJUNG KARANG/RADIN INTEN II,,ID,-5.1,105.1833,94,5,96295
,,96509,TARAKAN/JUWATA,,ID,3.3333,117.5667,6,5,96509
,,96529,TANJUNG REDEP/KALIMARAU,,ID,2.1439,117.4327,15,5,96529
,,96535,PALOH,,ID,1.7667,109.3,5,5,96535
,,96565,PUTUSSIBAU/PAGSUMA,,ID,0.8833,112.9333,53,5,96565
,,96581,PONTIANAK/SUPADIO,,ID,-0.15,109.4,3,5,96581
,,96595,MUARA TEWEH/BERINGIN,,ID,-0.942,114.8961,42,5,96595
,,96607,SAMARINDA/TEMINDUNG,,ID,-0.4844,117.1569,3,5,96607
,,96633,BALIKPAPAN/SEPINGGAN,,ID,-1.2625,116.8947,3,5,96633
,,96645,PANGKALAN BUN/ISKANDAR,,ID,-2.7,111.7,25,5,96645
,,96655,PALANGKA RAYA/TJILIK RIWUT,,ID,-2.2281,113.9462,27,5,96655
,,96685,BANJARMASIN/SYAMSUDIN NOOR,,ID,-3.4387,114.7524,15,5,96685
,,96737,SERANG,,ID,-6.1167,106.1333,50,5,96737
,,96739,CURUG/BUDIARTO,,ID,-6.2333,106.65,46,5,96739
,,96749,JAKARTA/SOEKARNO-HATTA,,ID,-6.1221,106.6547,8,5,96749
,,96791,CIREBON/JATIWANGI,,ID,-6.75,108.2667,42,5,96791
,,96797,TEGAL,,ID,-6.85,109.15,10,5,96797
,,96805,CILACAP,,ID,-7.7333,109.0167,6,5,96805
,,96839,SEMARANG/AHMAD YANI,,ID,-6.9833,110.3833,3,5,96839
,,96925,SANGKAPURA (BAWEAN IS.),,ID,-5.851,112.6577,3,5,96925
,,96935,JUANDA SURABAYA,,ID,-7.3726,112.7799,2,5,96935
,,96973,KALIANGET (MADURA IS),,ID,-7.0413,113.9159,3,5,96973
,,96987,BANYUWANGI,,ID,-8.2152,114.3553,43,5,96987
,,97008,NAHA/TAHUNA,,ID,3.6859,125.5288,6,5,97008
,,97014,MENADO/ SAM RATULANGI,,ID,1.546,124.9228,23,5,97014
,,97028,TOLI-TOLI/LALOS,,ID,1.1213,120.7943,6,5,97028
,,97048,GORONTALO/JALALUDDIN,,ID,0.6391,122.8512,32,5,97048
,,97072,PALU/MUTIARA,,ID,-0.9163,119.9054,84,5,97072
,,97086,LUWUK/BUBUNG,,ID,-1.0405,122.7709,17,5,97086
,,97096,POSO/KASIGUNCU,,ID,-1.4202,120.6571,16,5,97096
,,97120,MAJENE,,ID,-3.5,119.0,8,5,97120
,,97180,UJUNG PANDANG/HASANUDDIN,,ID,-5.071,119.5522,14,5,97180
,,97192,BAU-BAU/BETO AMBARI,,ID,-5.4879,122.5709,35,5,97192
,,97230,DENPASAR/NGURAH RAI,,ID,-8.7499,115.1766,4,5,97230
,,97240,PRAYA LOMBOK,,ID,-8.55,116.0833,3,5,97240
,,97260,SUMBAWA BESAR/BRANGBIJI,,ID,-8.488,117.4135,10,5,97260
,,97270,BIMA/M.SALAHUDDIN,,ID,-8.5425,118.693,2,5,97270
,,97300,MAUMERE/WAI OTI,,ID,-8.6358,122.2374,31,5,97300
,,97340,WAINGAPU/MAU HAU,,ID,-9.6697,120.2997,100,5,97340
,,97372,KUPANG/ELTARI,,ID,-10.1676,123.6701,102,5,97372
,,97430,TERNATE/BABULLAH,,ID,0.829,127.3813,32,5,97430
,,97460,LABUHA/OESMAN SADIK,,ID,-0.6333,127.5,3,5,97460
,,97502,DEO SORONG,,ID,-0.8911,131.2858,3,5,97502
,,97530,MANOKWARI/RENDANI,,ID,-0.8922,134.0504,3,5,97530
,,97560,BIAK/FRANS KAISIEPO,,ID,-1.1833,136.1167,11,5,97560
,,97600,SANANA,,ID,-2.0702,125.979,4,5,97600
,,97686,WAMENA,,ID,-4.0958,138.9502,1550,5,97686
,,97690,JAYAPURA/SENTANI,,ID,-2.576,140.5184,80,5,97690
,,97724,AMBON/PATTIMURA,,ID,-3.7111,128.0854,14,5,97724
,,97748,GESER,,ID,-3.8868,130.8955,1,5,97748
,,97760,KAIMANA/UTAROM,,ID,-3.6438,133.6969,5,5,97760
,,97810,TUAL/DUMATUBUN,,ID,-5.6637,132.7361,6,5,97810
,,97876,TANAH MERAH,,ID,-6.1,140.3,16,5,97876
,,97900,SAUMLAKI/OLILIT,,ID,-7.9833,131.3,24,5,97900
,,97980,MERAUKE/MOPAH,,ID,-8.5202,140.4157,3,5,97980
,,42027,SRINAGAR (42027-0),,IN,34.0833,74.8333,1585,5,42027
,,42056,JAMMU,,IN,32.6667,74.8333,415,5,42056
,,42071,AMRITSAR,,IN,31.6333,74.8667,229,5,42071
,,42079,SUNDERNAGAR,,IN,31.5333,76.9,874,5,42079
,,42101,PATIALA,,IN,30.3333,76.4667,251,5,42101
,,42103,AMBALA,,IN,30.3833,76.7667,273,5,42103
,,42111,DEHRADUN,,IN,30.2833,78.0833,644,5,42111
,,42123,GANGANAGAR,,IN,29.9167,73.8833,173,5,42123
,,42165,BIKANER,,IN,28.0,73.3,223,5,42165
,,42170,CHURU,,IN,28.25,74.9167,290,5,42170
,,42182,NEW DELHI/SAFDARJUNG,,IN,28.5833,77.2,211,5,42182
,,42189,BAREILLY,,IN,28.3667,79.4,167,5,42189
,,42220,PASIGHAT,,IN,28.1,95.3833,157,5,42220
,,42260,AGRA (42260-0),,IN,27.15,77.9667,168,5,42260
,,42273,BAHRAICH,,IN,27.5678,81.5939,123,5,42273
,,42299,GANGTOK,,IN,27.3333,88.6167,1756,5,42299
,,42314,DIBRUGARH /MOHANBARI,,IN,27.4833,95.0167,112,5,42314
,,42328,JAISALMER,,IN,26.9,70.9167,231,5,42328
,,42339,JODHPUR,,IN,26.3,73.0167,217,5,42339
,,42348,JAIPUR / SANGANER,,IN,26.8167,75.8,383,5,42348
,,42361,GWALIOR,,IN,26.2333,78.25,205,5,42361
,,42369,LUCKNOW/AMAUSI,,IN,26.75,80.8833,122,5,42369
,,42379,GORAKHPUR,,IN,26.75,83.3667,78,5,42379
,,42397,SILIGURI (42397-0),,IN,26.6667,88.3667,123,5,42397
,,42399,JALPAIGURI,,IN,26.5333,88.7167,83,5,42399
,,42410,GUWAHATI,,IN,26.1,91.5833,54,5,42410
,,42435,BARMER,,IN,25.75,71.3833,193,5,42435
,,42452,KOTA AERODROME,,IN,25.15,75.85,273,5,42452
,,42474,ALLAHABAD/GHOORPUR,,IN,25.3093,81.8081,107,5,42474
,,42492,PATNA,,IN,25.6,85.1667,51,5,42492
,,42498,BHAGALPUR,,IN,25.2333,86.95,44,5,42498
,,42516,SHILLONG,,IN,25.5667,91.8833,1598,5,42516
,,42539,DEESA,,IN,24.2,72.2,135,5,42539
,,42542,UDAIPUR DABOK,,IN,24.6167,73.8833,508,5,42542
,,42591,GAYA (42591-0),,IN,24.75,84.95,116,5,42591
,,42623,IMPHAL/TULIHAL,,IN,24.7667,93.9,781,5,42623
,,42634,BHUJ-RUDRAMATA,,IN,23.25,69.8,118,5,42634
,,42647,AHMADABAD,,IN,23.0667,72.6333,55,5,42647
,,42667,BHOPAL/BAIRAGHAR,,IN,23.2833,77.35,522,5,42667
,,42675,JABALPUR,,IN,23.2,79.95,397,5,42675
,,42701,M.O. RANCHI,,IN,23.3167,85.3167,647,5,42701
,,42706,BANKURA,,IN,23.3833,87.0833,100,5,42706
,,42724,AGARTALA,,IN,23.8833,91.25,16,5,42724
,,42726,LENGPUI,,IN,23.8333,92.6167,429,5,42726
,,42798,JAMSHEDPUR (42798-0),,IN,22.8167,86.1833,142,5,42798
,,42809,KOLKATA/DUM DUM,,IN,22.65,88.45,6,5,42809
,,42840,SURAT (42840-0),,IN,21.2,72.8333,8,5,42840
,,42867,NAGPUR SONEGAON,,IN,21.1,79.05,310,5,42867
,,42874,PBO RAIPUR,,IN,21.2333,81.65,296,5,42874
,,42886,JHARSIGUDA,,IN,21.9167,84.0833,228,5,42886
,,42895,BALASORE,,IN,21.5167,86.9333,18,5,42895
,,42971,BHUBANESHWAR,,IN,20.25,85.8333,45,5,42971
,,43003,BOMBAY / SANTACRUZ,,IN,19.1167,72.85,14,5,43003
,,43014,AURANGABAD AIRPORT,,IN,19.85,75.4,582,5,43014
,,43041,JAGDALPUR,,IN,19.0833,82.0333,554,5,43041
,,43049,GOPALPUR,,IN,19.2667,84.8833,16,5,43049
,,43063,PUNE,,IN,18.5333,73.85,555,5,43063
,,43086,RAMGUNDAM,,IN,18.7667,79.4333,156,5,43086
,,43110,RATNAGIRI,,IN,16.9833,73.3333,91,5,43110
,,43128,HYDERABAD AIRPORT,,IN,17.45,78.4667,530,5,43128
,,43150,VISHAKHAPATNAM/WALTAIR,,IN,17.6833,83.3,69,5,43150
,,43185,MACHILIPATNAM/FRANCHPET,,IN,16.2,81.15,3,5,43185
,,43192,GOA/PANJIM,,IN,15.4833,73.8167,59,5,43192
,,43201,GADAG,,IN,15.4167,75.6333,668,5,43201
,,43237,ANANTAPUR,,IN,14.6833,77.6167,349,5,43237
,,43279,MADRAS/MINAMBAKKAM,,IN,13.0,80.1833,10,5,43279
,,43285,MANGALORE/PANAMBUR,,IN,12.95,74.8333,30,5,43285
,,43295,BENGALURU,,IN,12.9667,77.5833,916,5,43295
,,43311,AMINIDIVI,,IN,11.1167,72.7333,2,5,43311
,,43333,PORT BLAIR,,IN,11.6667,92.7167,79,5,43333
,,43344,TIRUCHCHIRAPALLI,,IN,10.7667,78.7167,88,5,43344
,,43346,KARAIKAL,,IN,10.9167,79.8333,6,5,43346
,,43353,COCHIN/WILLINGDON,,IN,9.95,76.2667,1,5,43353
,,43369,MINICOY,,IN,8.2813,73.0581,1,5,43369
,,43371,THIRUVANANTHAPURAM (43371-0),,IN,8.4833,76.95,59,5,43371
,,40706,TABRIZ,,IR,38.1222,46.2425,1361,5,40706
,,40738,GORGAN,,IR,36.905,54.4136,0,5,40738
,,40745,MASHHAD,,IR,36.2363,59.6311,999,5,40745
,,40754,TEHRAN-MEHRABAD,,IR,35.6933,51.3094,1191,5,40754
,,40766,KERMANSHAH,,IR,34.3522,47.1533,1318,5,40766
,,40800,ESFAHAN,,IR,32.5175,51.7061,1550,5,40800
,,40809,BIRJAND,,IR,32.8905,59.2836,1491,5,40809
,,40811,AHWAZ,,IR,31.3447,48.7441,22,5,40811
,,40821,YAZD,,IR,31.9038,54.2897,1230,5,40821
,,40841,KERMAN,,IR,30.25,56.9667,1748,5,40841
,,40848,SHIRAZ,,IR,29.5613,52.6025,1488,5,40848
,,40856,ZAHEDAN,,IR,29.4722,60.9002,1370,5,40856
,,40875,BANDARABBASS,,IR,27.2147,56.3727,9,5,40875
,,40179,BET DAGAN,,IS,32.0,34.8167,30,5,40179
,,40186,ASHDOD NORTH,,IS,31.8667,34.6833,20,5,40186
,,16037,AVIANO (16037-0),,IT,46.0303,12.5992,113,5,16037
,,16044,UDINE/CAMPOFORMIDO,,IT,46.0333,13.1833,93,5,16044
,,16045,UDINE/RIVOLTO,,IT,45.9756,13.0492,51,5,16045
,,16064,NOVARA/CAMERI,,IT,45.53,8.6667,178,5,16064
,,16080,MILANO/LINATE (16080-0),,IT,45.4494,9.2783,108,5,16080
,,16113,CUNEO-LEVALDIGI RDS,,IT,44.5392,7.6125,385,5,16113
,,16144,S. PIETRO CAPOFIUME RDS,,IT,44.6539,11.6225,10,5,16144
,,16245,PRATICA DI MARE,,IT,41.6556,12.4481,12,5,16245
,,16320,BRINDISI,,IT,40.6578,17.9517,14,5,16320
,,16332,LECCE (16332-0),,IT,40.2383,18.1389,49,5,16332
,,16429,TRAPANI BIRGI,,IT,37.9142,12.4914,7,5,16429
,,16546,DECIMOMANNU,,IT,39.3461,8.9675,29,5,16546
,,16560,CAGLIARI ELMAS,,IT,39.2436,9.06,4,5,16560
,,65548,MAN,,IV,7.3833,-7.5167,339,5,65548
,,65578,ABIDJAN,,IV,5.25,-3.9333,7,5,65578
,,40650,BAGHDAD INT. AIRPORT,,IZ,33.3,44.4,32,5,40650
,,47401,WAKKANAI,,JA,45.4153,141.6786,2,5,47401
,,47412,SAPPORO,,JA,43.06,141.3286,17,5,47412
,,47418,KUSHIRO (47418-0),,JA,42.9861,144.3772,4,5,47418
,,47420,NEMURO,,JA,43.3333,145.5833,26,5,47420
,,47580,MISAWA AB,,JA,40.7053,141.3719,36,5,47580
,,47582,AKITA (47582-0),,JA,39.7172,140.0994,6,5,47582
,,47600,WAJIMA,,JA,37.3914,136.8953,5,5,47600
,,47646,TATENO,,JA,36.0581,140.1258,25,5,47646
,,47678,HACHIJOJIMA,,JA,33.1217,139.7792,151,5,47678
,,47681,HAMAMATSU AB,,JA,34.7503,137.703,45,5,47681
,,47741,MATSUE,,JA,35.4572,133.0656,16,5,47741
,,47744,YONAGO,,JA,35.4333,133.35,6,5,47744
,,47778,SHIONOMISAKI (47778-0),,JA,33.4503,135.7572,67,5,47778
,,47807,FUKUOKA,,JA,33.5822,130.3764,2,5,47807
,,47827,KAGOSHIMA,,JA,31.555,130.548,3,5,47827
,,47909,NAZE,,JA,28.3797,129.4955,2,5,47909
,,47911,YONAGUNI AIRPORT,,JA,24.4667,122.9833,17,5,47911
,,47918,ISHIGAKIJIMA,,JA,24.3367,124.1644,5,5,47918
,,47945,MINAMIDAITOJIMA,,JA,25.8289,131.2286,15,5,47945
,,47971,CHICHIJIMA,,JA,27.0922,142.1914,2,5,47971
,,47991,MINAMITORISHIMA,,JA,24.2883,153.9833,7,5,47991
,,78397,WINDSOR,,JM,17.9739,-76.9733,21,5,78397
,,1001,JAN MAYEN,,JN,70.9331,-8.6667,10,5,1001
,,40265,MAFRAQ,,JO,32.3667,36.25,683,5,40265
,,63612,LODWAR,,KE,3.1185,35.5903,502,5,63612
,,63741,DAGORETTI CORNER,,KE,-1.3012,36.7597,1796,5,63741
,,47041,HAMHEUNG,,KN,39.9333,127.55,39,5,47041
,,47058,PYONGYANG,,KN,39.0333,125.7833,36,5,47058
,,91610,TARAWA,,KR,1.35,172.9167,2,5,91610
,,47090,SOKCHO,,KS,38.2509,128.5647,17,5,47090
,,47098,DONGDUCHEON,,KS,37.9019,127.0607,115,5,47098
,,47101,CHUNCHEON,,KS,37.9026,127.7357,75,5,47101
,,47113,INCHEON INT'L AIRPORT,,KS,37.4667,126.4333,7,5,47113
,,47122,OSAN AB,,KS,37.0833,127.0333,11,5,47122
,,47132,ANMYEONDO,,KS,36.5167,126.3167,46,5,47132
,,47135,CHUPUNGNYEONG,,KS,36.2202,127.9946,245,5,47135
,,47138,POHANG,,KS,36.032,129.38,3,5,47138
,,47155,CHANGWON,,KS,35.1702,128.5728,35,5,47155
,,47158,GWANGJU AB,,KS,35.1167,126.8,12,5,47158
,,47169,HEUKSANDO,,KS,34.6872,125.451,75,5,47169
,,47185,GOSAN,,KS,33.2938,126.1628,71,5,47185
,,47186,NATIONAL TYPHOON CENTER,,KS,33.3315,126.6784,246,5,47186
,,47230,DEOKJEOKBUKRI,,KS,37.2645,126.103,12,5,47230
,,40582,KUWAIT INTERNATIONAL AIRPORT,,KU,29.2217,47.9658,46,5,40582
,,28951,KOSTANAI AS,,KZ,53.2993,63.6104,171,5,28951
,,28952,KOSTANAY,,KZ,53.2369,63.741,151,5,28952
,,35229,AKTOBE,,KZ,50.2579,57.2235,219,5,35229
,,35394,KARAGANDA,,KZ,49.8,73.15,552,5,35394
,,35671,ZHEZKAZGAN,,KZ,47.8,67.7167,344,5,35671
,,35700,ATYRAU,,KZ,47.1161,51.8836,-23,5,35700
,,36003,PAVLODAR,,KZ,52.2003,77.0702,120,5,36003
,,36870,ALMATY OGMS,,KZ,43.2394,76.9328,846,5,36870
,,36872,ALMATY AS,,KZ,46.3636,77.0045,660,5,36872
,,38064,AMS TASBOGET/KYZYLORDA AS,,KZ,44.7688,65.5265,127,5,38064
,,38341,TARAZ,,KZ,42.85,71.3,651,5,38341
,,73110,SHEARWATER UA  NS,,KZ,44.6319,63.5052,38,5,73110
,,26435,SKRIVERI,,LG,56.6425,25.1283,79,5,26435
,,26629,KAUNAS (26629-0),,LH,54.8839,23.8358,76,5,26629
,,11952,POPRAD-GANOVCE,,LO,49.0347,20.3233,703,5,11952
,,62010,TRIPOLI INTL ARPT,,LY,32.6833,13.1667,80,5,62010
,,62053,BENINA,,LY,32.1,20.2667,131,5,62053
,,62124,SEBHA,,LY,27.0167,14.45,435,5,62124
,,67027,MAHAJANGA,,MA,-15.6667,46.35,26,5,67027
,,67083,ANTANANARIVO/IVATO,,MA,-18.8,47.4833,1279,5,67083
,,67095,TOAMASINA,,MA,-18.1167,49.4,5,5,67095
,,67197,TAOLAGNARO,,MA,-25.0333,46.95,8,5,67197
,,44212,ULAANGOM,,MG,49.9714,92.0778,939,5,44212
,,44231,MUREN,,MG,49.6384,100.167,1291,5,44231
,,44259,CHOIBALSAN,,MG,48.117,114.5088,746,5,44259
,,44277,ALTAI,,MG,46.3762,96.2387,2180,5,44277
,,44288,ARVAIHEER,,MG,46.2591,102.789,1815,5,44288
,,44292,ULAANBAATAR,,MG,47.9184,106.8479,1303,5,44292
,,44373,DALANZADGAD,,MG,43.5772,104.4181,1462,5,44373
,,48811,DIEN BIEN,,ML,21.3572,0.0103,475,5,48811
,,61202,TESSALIT,,ML,20.2,0.9833,494,5,61202
,,61223,TOMBOUCTOU/TIMBUKTU,,ML,16.7167,-3.0,263,5,61223
,,61265,MOPTI,,ML,14.5167,-4.1,276,5,61265
,,61291,BAMAKO/SENOU,,ML,12.5333,-7.95,380,5,61291
,,60155,CASABLANCA,,MO,33.5667,-7.6667,56,5,60155
,,60191,BENI MELLAL SIDI JABER,,MO,32.3667,-6.4,468,5,60191
,,60253,TAROUDANT,,MO,30.5,-8.8167,264,5,60253
,,61995,VACOAS (MAURITIUS),,MP,-20.2975,57.4947,423,5,61995
,,61415,NOUADHIBOU,,MR,20.9203,-17.0364,0,5,61415
,,61442,NOUAKCHOTT / OUMTOUNSY,,MR,18.3003,-15.9754,2,5,61442
,,41256,MUSCAT INT'L AIRPORT,,MU,23.6087,58.2615,2,5,41256
,,41316,SALALAH AIRPORT,,MU,17.0346,54.0737,20,5,41316
,,43555,MALE,,MV,4.1917,73.5292,1,5,43555
,,43599,GAN,,MV,-0.6933,73.1556,1,5,43599
MMCU,CUU,76225,Chihuahua Intl,,MX,28.7,-105.97,1372,1,76225
,,76256,EMPALME; SON.,,MX,27.9573,-110.7973,10,5,76256
MMAN,MAN,76394,Monterrey,,MX,25.87,-100.23,448,5,MAN
,,76405,La Paz,,MX,24.1666666667,-110.3,18,8,76405
,,76458,COLONIA JUAN CARRASCO MAZATLAN,,MX,23.2173,-106.4111,3,5,76458
,,76526,ZACATECAS SONDEO,,MX,22.7465,-102.5066,2265,5,76526
MMUN,CUN,76595,Cancun Intl,,MX,21.03,-86.87,10,1,CUN
,,76612,GUADALAJARA; JAL.,,MX,20.7065,-103.3923,1554,5,76612
MMMD,MID,76644,Merida,,MX,20.98,-89.65,10,5,MID
,,76654,MANZANILLO; COL.,,MX,19.0445,-104.3185,2,5,76654
,,76679,AEROP. INTERNACIONAL MEXICO; D,,MX,19.4037,-99.1966,2337,5,76679
MMVR,VER,76692,Veracruz,,MX,19.15,-96.18,16,7,VER
,,76743,VILLAHERMOSA; TAB.,,MX,17.981,-92.9215,6,5,76743
,,76805,ACAPULCO; GRO.,,MX,16.7629,-99.7494,3,5,76805
,,76903,TAPACHULA; CHIS,,MX,14.8872,-92.2964,114,5,76903
,,48601,PENANG/BAYAN LEPAS,,MY,5.3,100.2667,2,5,48601
,,48615,KOTA BHARU,,MY,6.1667,102.3006,4,5,48615
,,48620,PERAK;SITIAWAN,,MY,4.2167,100.7,6,5,48620
,,48650,KUALA LUMPUR INTERNATIONAL AIR,,MY,2.7308,101.7031,16,5,48650
,,48657,KUANTAN,,MY,3.7722,103.2119,15,5,48657
,,96413,KUCHING,,MY,1.4903,110.3525,20,5,96413
,,96441,BINTULU,,MY,3.12,113.0246,23,5,96441
,,96471,KOTA KINABALU,,MY,5.9333,116.05,2,5,96471
,,96481,TAWAU,,MY,4.2667,117.8833,18,5,96481
,,96491,SANDAKAN,,MY,5.9,118.0667,12,5,96491
,,91592,NOUMEA (NLLE-CALEDONIE),,NC,-22.2761,166.4528,70,5,91592
,,94996,NORFOLK ISLAND AERO,,NF,-29.0389,167.9408,113,5,94996
,,61024,AGADEZ,,NG,16.9667,7.9833,501,5,61024
,,61052,NIAMEY-AERO,,NG,13.4833,2.1667,215,5,61052
,,61075,BIRNI-N'KONNI,,NG,13.8,5.25,272,5,61075
,,61090,ZINDER,,NG,13.7833,8.9833,451,5,61090
,,91557,BAUERFIELD (EFATE),,NH,-17.6947,168.3129,22,5,91557
,,65046,KANO,,NI,12.05,8.5333,472,5,65046
,,65125,ABUJA,,NI,9.0203,7.2746,354,5,65125
,,65202,LAGOS/OSHODI,,NI,6.5,3.3833,19,5,65202
,,65257,ENUGU,,NI,6.4667,7.55,137,5,65257
,,6235,DE KOOIJ VK,,NL,52.9269,4.7811,1,5,6235
,,6260,RADAR 6260 [181] [NL],,NL,52.1019,5.1783,2,5,6260
,,78866,JULIANA AIRPORT; ST. MAARTEN,,NN,18.0385,-63.1192,3,5,78866
,,1010,ANDOYA,,NO,69.3073,16.1312,10,5,1010
,,1152,BODO VI,,NO,67.2669,14.3586,11,5,1152
,,1206,RADAR STAD,,NO,62.1869,5.1272,495,5,1206
,,1241,ORLAND III,,NO,63.7045,9.6105,10,5,1241
,,1400,EKOFISK,,NO,56.5422,3.2236,50,5,1400
,,1415,STAVANGER/SOLA,,NO,58.8725,5.6645,33,5,1415
,,1492,OSLO-BLINDERN,,NO,59.9422,10.72,94,5,1492
,,91532,NAURU ARC-2,,NR,-0.5167,166.9167,7,5,91532
,,93112,WHENUAPAI,,NZ,-36.7928,174.6214,30,5,93112
,,93291,GISBORNE AERODROME,,NZ,-38.6667,177.9833,5,5,93291
,,93308,NEW PLYMOUTH AERODROME,,NZ,-39.0167,174.1833,28,5,93308
,,93417,PARAPARAUMU AERODROME,,NZ,-40.9044,174.9839,6,5,93417
,,93614,HOKITIKA AERODROME,,NZ,-42.7167,170.9833,45,5,93614
,,93817,LAUDER OBSERVATORY,,NZ,-45.0385,169.6843,371,5,93817
,,93844,INVERCARGILL AIRPORT,,NZ,-46.4108,168.3178,2,5,93844
,,93986,CHATHAM ISLAND,,NZ,-43.95,-176.5667,44,5,93986
,,93997,RAOUL ISLAND,,NZ,-29.2447,-177.9288,47,5,93997
,,86218,AEROPUERTO SILVIO PETTIROSSI;,,PA,-25.2358,-57.5147,83,5,86218
,,84378,MORONA,,PE,-3.7333,-73.25,117,5,84378
,,84416,PIURA GRUP7,,PE,-5.1833,-80.6,52,5,84416
,,84628,LIMA/CALLAO,,PE,-12.0167,-77.1167,12,5,84628
,,59981,XISHA DAO,,PF,16.8333,112.3333,5,5,59981
,,41506,CHITRAL,,PK,35.9217,71.8,1499,5,41506
,,41515,DROSH,,PK,35.5667,71.7833,1464,5,41515
,,41516,GILGIT,,PK,35.9167,74.3333,1453,5,41516
,,41529,PESHAWAR,,PK,34.0333,71.9333,329,5,41529
,,41598,JHELUM,,PK,32.9333,73.7167,232,5,41598
,,41600,SIALKOT,,PK,32.5,74.5333,255,5,41600
,,41624,DERA ISMAIL KHAN,,PK,31.8167,70.9167,172,5,41624
,,41640,LAHORE CITY,,PK,31.55,74.3333,214,5,41640
,,41661,QUETTA (SHEIKH MANDA),,PK,30.2667,66.9167,1620,5,41661
,,41675,MULTAN,,PK,30.2,71.4333,122,5,41675
,,41678,BAHAWALNAGAR,,PK,29.95,73.25,162,5,41678
,,41710,NOKKUNDI,,PK,28.8167,62.75,682,5,41710
,,41712,DAL BANDIN,,PK,28.8833,64.4,848,5,41712
,,41715,JACOBABAD,,PK,28.3,68.4667,55,5,41715
,,41718,KHANPUR,,PK,28.65,70.6833,87,5,41718
,,41739,PANJGUR,,PK,26.9667,64.1,980,5,41739
,,41744,KHUZDAR,,PK,27.8333,66.6333,1231,5,41744
,,41749,NAWABSHAH,,PK,26.25,68.3667,37,5,41749
,,41756,JIWANI,,PK,25.0667,61.8,56,5,41756
,,41764,HYDERABAD,,PK,25.3833,68.4167,28,5,41764
,,41768,CHHOR,,PK,25.5167,69.7833,5,5,41768
,,41780,KARACHI AIRPORT,,PK,24.9,67.1333,21,5,41780
,,12120,LEBA,,PL,54.7536,17.5347,1,5,12120
,,12374,LEGIONOWO,,PL,52.4078,20.9564,94,5,12374
,,12425,WROCLAW-STARACHOWICE,,PL,51.1131,16.8811,119,5,12425
,,12575,TARNOW,,PL,50.03,20.9844,209,5,12575
,,78807,COROZAL OESTE,,PM,8.9667,-79.5667,7,5,78807
,,8507,GRACIOSA/AERODROMO,,PO,39.0913,-28.0299,25,5,8507
,,8508,LAJES (ACORES) (8508-0),,PO,38.7678,-27.0872,72,5,8508
,,8522,FUNCHAL,,PO,32.6475,-16.8925,58,5,8522
,,8536,LISBOA/PORTELA,,PO,38.7892,-9.1352,103,5,8536
,,92035,PORT MORESBY W.O.,,PP,-9.4409,147.2104,57,5,92035
,,92044,MOMOTE W.O.,,PP,-2.05,147.4167,4,5,92044
,,91408,KOROR/CAROLINE IS.,,PS,7.3333,134.4833,30,5,91408
,,41169,HAMAD INTERNATIONAL AIRPORT,,QA,25.2731,51.6081,4,5,41169
,,61980,SAINT-DENIS/GILLOT (REUNION),,RE,-20.8925,55.5286,20,5,61980
,,13275,BEOGRAD/KOSUTNJAK,,RI,44.7714,20.4244,203,5,13275
,,13295,NEGOTIN,,RI,44.2392,22.5365,43,5,13295
,,13369,SJENICA,,RI,43.2685,19.995,1038,5,13369
,,13388,NIS,,RI,43.3264,21.8975,203,5,13388
,,91366,KWAJALEIN/BUCHOLZ AAF; MARSHAL,,RM,8.7333,167.7333,2,5,91366
PKMJ,,91376,Majuro,MH,US,7.08,171.38,3,5,
,,15120,CLUJ-NAPOCA,,RO,46.7778,23.5713,410,5,15120
,,15420,BUCURESTI BANEASA,,RO,44.5104,26.0782,90,5,15420
,,98223,LAOAG,,RP,18.1831,120.5348,5,5,98223
,,98233,TUGUEGARAO,,RP,17.6478,121.7584,58,5,98233
,,98328,BAGUIO,,RP,16.404,120.6015,1500,5,98328
,,98433,TANAY,,RP,14.5812,121.3693,646,5,98433
,,98444,LEGASPI,,RP,13.1508,123.7283,15,5,98444
,,98558,GUIUAN,,RP,11.0456,125.7555,60,5,98558
,,98618,PUERTO PRINCESA,,RP,9.7401,118.7586,14,5,98618
,,98646,MACTAN,,RP,10.3167,123.9833,24,5,98646
,,98747,LUMBIA AIRPORT,,RP,8.4089,124.6119,186,5,98747
,,98753,DAVAO AIRPORT,,RP,7.128,125.6548,17,5,98753
TJSJ,SJU,78526,San Juan,PR,US,18.43,-66.0,21,5,SJU
,,20046,POLARGMO IM. E.T. KRENKELJA,,RS,80.6264,58.0589,21,5,20046
,,20292,GMO IM.E.K. FEDOROVA,,RS,77.7131,104.2919,12,5,20292
,,20674,OSTROV DIKSON,,RS,73.5136,80.4064,42,5,20674
,,20744,MALYE KARMAKULY (20744-0),,RS,72.3744,52.7161,18,5,20744
,,20891,HATANGA,,RS,71.9772,102.4664,31,5,20891
,,21824,TIKSI,,RS,71.5833,128.9167,6,5,21824
,,21946,CHOKURDAH,,RS,70.6167,147.8833,44,5,21946
,,22008,MURMANSK (RS),,RS,68.9833,33.1167,121,5,22008
,,22217,KANDALAKSHA,,RS,67.1692,32.3542,26,5,22217
,,22271,SHOJNA,,RS,67.8767,44.1742,4,5,22271
,,22522,KEM,,RS,64.95,34.65,8,5,22522
,,22543,ARHANGEL'SK (22543-0),,RS,64.6247,40.5114,4,5,22543
,,22550,ARHANGEL'SK (22550-0),,RS,64.5042,40.7278,8,5,22550
,,22820,PETROZAVODSK,,RS,61.8167,34.2667,110,5,22820
,,22845,KARGOPOL,,RS,61.5067,38.9347,124,5,22845
,,23078,NORIL'SK,,RS,69.3472,88.2639,60,5,23078
,,23205,NAR'JAN-MAR,,RS,67.625,53.0175,5,5,23205
,,23330,SALEHARD,,RS,66.5319,66.6744,14,5,23330
,,23415,PECHORA (23415-0),,RS,65.1167,57.1,56,5,23415
,,23472,TURUHANSK,,RS,65.7944,87.9889,42,5,23472
,,23802,SYKTYVKAR (23802-0),,RS,61.6767,50.7806,116,5,23802
,,23884,BOR,,RS,61.5806,90.0306,62,5,23884
,,23921,IVDEL,,RS,60.6833,60.45,93,5,23921
,,23933,HANTY-MANSIJSK,,RS,61.0278,69.1189,44,5,23933
,,23955,ALEKSANDROVSKOE,,RS,60.4333,77.8667,47,5,23955
,,24122,OLENEK (RS),,RS,68.5,112.4333,207,5,24122
,,24125,OLENEK (24125-0),,RS,68.5,112.4333,216,5,24125
,,24266,VERHOJANSK,,RS,67.5667,133.4,135,5,24266
,,24343,ZHIGANSK,,RS,66.7667,123.4,87,5,24343
,,24507,TURA (24507-0),,RS,64.2694,100.2167,188,5,24507
,,24641,VILJUJSK,,RS,63.7833,121.6167,110,5,24641
,,24688,OJMJAKON,,RS,63.25,143.15,740,5,24688
,,24726,MIRNVY,,RS,62.5333,113.8667,351,5,24726
,,24908,VANAVARA,,RS,60.3361,102.2944,258,5,24908
,,24944,OLEKMINSK (24944-0),,RS,60.4,120.4167,225,5,24944
,,24947,OLEKMINSK (RS),,RS,60.3667,120.4167,134,5,24947
,,24959,JAKUTSK,,RS,62.0167,129.7167,98,5,24959
,,25042,AJON ISLAND,,RS,69.9333,167.9667,16,5,25042
,,25123,CHERSKIJ,,RS,68.75,161.2833,32,5,25123
,,25400,ZYRYANKA (25400-0),,RS,65.7333,150.9,40,5,25400
,,25403,ZYRYANKA (RS),,RS,65.7333,150.9,47,5,25403
,,25428,OMOLON,,RS,65.2333,160.5333,260,5,25428
,,25563,ANADYR,,RS,64.7833,177.5667,64,5,25563
,,25703,SEJMCHAN,,RS,62.9167,152.4167,206,5,25703
,,25913,MAGADAN,,RS,59.55,150.7833,115,5,25913
,,26063,ST.PETERSBURG (VOEJKOVO) (2606,,RS,59.9667,30.3,3,5,26063
,,26075,ST.PETERSBURG (VOEJKOVO) (RS),,RS,59.95,30.7,72,5,26075
,,26298,BOLOGOE,,RS,57.8833,34.0333,186,5,26298
,,26477,VELIKIE LUKI,,RS,56.35,30.6167,97,5,26477
,,26702,KALININGRAD,,RS,54.7264,20.5583,19,5,26702
,,26708,KALININGRAD (NIZOV'E),,RS,54.6964,20.7658,14,5,26708
,,26781,SMOLENSK,,RS,54.75,32.0667,240,5,26781
,,27038,VOLOGDA (27038-0),,RS,59.3183,39.9256,124,5,27038
,,27199,KIROV (27199-0),,RS,58.5667,49.5667,156,5,27199
,,27594,KAZAN'(VYAZOVYE),,RS,55.8153,48.5106,126,5,27594
,,27595,KAZAN' (27595-0),,RS,55.74,49.2044,115,5,27595
,,27707,SUHINICHI,,RS,54.1,35.35,237,5,27707
,,27713,MOSKVA (DOLGOPRUDNYJ) (RS),,RS,55.93,37.5183,187,5,27713
,,27730,RYAZAN,,RS,54.6333,39.7,155,5,27730
,,27962,PENZA,,RS,53.1228,45.0189,169,5,27962
,,27995,SAMARA (BEZENCHUK),,RS,52.9833,49.4333,44,5,27995
,,28225,PERM' (28225-1),,RS,57.9583,56.1972,170,5,28225
,,28275,TOBOL'SK,,RS,58.15,68.25,55,5,28275
,,28445,EKATERINBURG (VERHNEE DUBROVO),,RS,56.7333,61.0667,286,5,28445
,,28661,KURGAN,,RS,55.4567,65.4011,70,5,28661
,,28695,OMSK (RS),,RS,54.9333,73.4,89,5,28695
,,28698,OMSK (28698-0),,RS,55.0167,73.3833,121,5,28698
,,28722,UFA-DIOMA,,RS,54.7106,55.815,103,5,28722
,,29231,KOLPASEVO,,RS,58.3167,82.95,72,5,29231
,,29263,ENISEJSK,,RS,58.4528,92.2028,76,5,29263
,,29282,BOGUCANY,,RS,58.3833,97.45,131,5,29282
,,29572,EMEL' YANOVO,,RS,56.1806,92.6056,204,5,29572
,,29612,BARABINSK,,RS,55.3544,78.3083,118,5,29612
,,29634,NOVOSIBIRSK,,RS,54.9667,82.95,143,5,29634
,,29698,NIZHNEUDINSK,,RS,54.8833,99.0333,410,5,29698
,,29839,BARNAUL (29839-0),,RS,53.5,83.8333,140,5,29839
,,29862,ABAKAN,,RS,53.7667,91.3167,253,5,29862
,,30054,VITIM,,RS,59.45,112.5833,186,5,30054
,,30230,KIRENSK,,RS,57.7667,108.0667,256,5,30230
,,30309,BRATSK,,RS,56.2833,101.75,410,5,30309
,,30372,CHARA,,RS,56.9,118.2667,709,5,30372
,,30557,BAGDARIN (RS),,RS,54.4667,113.5833,995,5,30557
,,30635,UST'-BARGUZIN,,RS,53.4167,109.0167,459,5,30635
,,30673,MOGOCHA,,RS,53.75,119.7333,624,5,30673
,,30715,ANGARSK,,RS,52.4833,103.85,435,5,30715
,,30758,CHITA,,RS,52.0833,113.4833,671,5,30758
,,30935,KRASNYJ CHIKOJ,,RS,50.3667,108.75,770,5,30935
,,30965,BORZYA,,RS,50.4,116.5167,675,5,30965
,,31004,ALDAN,,RS,58.6167,125.3667,678,5,31004
,,31088,OHOTSK,,RS,59.3667,143.2,4,5,31088
,,31168,AYAN,,RS,56.45,138.15,6,5,31168
,,31300,ZEJA,,RS,53.7414,127.2764,228,5,31300
,,31369,NIKOLAEVSK-NA-AMURE,,RS,53.1475,140.6939,44,5,31369
,,31510,BLAGOVESCETNSK,,RS,50.2803,127.4783,168,5,31510
,,31538,SUTUR,,RS,50.0667,132.1333,343,5,31538
,,31561,KOMSOMOLSK-ON-AMUR,,RS,50.6,137.0333,19,5,31561
,,31736,HABAROVSK (31736-0),,RS,48.5333,135.2333,72,5,31736
,,31770,SOVETSKAYA GAVAN,,RS,0.0049,140.3,20,5,31770
,,31873,DAL'NERECHENSK,,RS,45.8667,133.7333,100,5,31873
,,31977,VLADIVOSTOK (SAD GOROD),,RS,43.2667,132.05,77,5,31977
,,32061,ALEKSANDROVSK-SAHALINSKIJ,,RS,50.9,142.1667,30,5,32061
,,32098,PORONAJSK,,RS,49.2167,143.1,7,5,32098
,,32150,JUZHNO-SAHALINSK,,RS,46.95,142.7167,22,5,32150
,,32215,SEVERO-KURIL'SK,,RS,50.6833,156.1333,24,5,32215
,,32389,KLJUCHI,,RS,56.3167,160.8333,28,5,32389
,,32477,SOBOLEVO,,RS,54.3,155.9167,25,5,32477
,,32540,PETROPAVLOVSK-KAMCHATSKIJ,,RS,53.0833,158.5833,78,5,32540
,,32618,OSTROV BERINGA,,RS,55.2,165.9833,16,5,32618
,,34009,KURSK,,RS,51.7667,36.1667,246,5,34009
,,34122,VORONEZ (34122-0),,RS,51.65,39.25,100,5,34122
,,34172,SARATOV (34170-1),,RS,51.5567,46.0394,162,5,34172
,,34247,KALACH,,RS,50.4167,41.05,90,5,34247
,,34467,VOLGOGRAD (34467-1),,RS,48.7833,44.3333,141,5,34467
,,34731,ROSTOV-NA-DONU (34731-1),,RS,47.25,39.8167,78,5,34731
,,34858,DIVNOE,,RS,45.9167,43.35,85,5,34858
,,34882,ASTRAHAN' (34882-1),,RS,46.2833,47.9833,-17,5,34882
,,35121,ORENBURG,,RS,51.6925,55.0783,114,5,35121
,,36096,KYZYL,,RS,51.7167,94.5,626,5,36096
,,37011,TUAPSE (37011-1),,RS,44.1,39.0333,94,5,37011
,,37055,MINERAL'NYE VODY (37055-1),,RS,44.2167,43.1,312,5,37055
,,37099,SOCHI,,RS,43.5833,39.7667,141,5,37099
,,37259,MAHACHKALA,,RS,43.0167,47.4833,-19,5,37259
,,40373,AL QAISUMAH AIRPORT,,SA,28.3306,46.1234,357,5,40373
,,40375,TABUK AIRPORT,,SA,28.3672,36.6043,767,5,40375
,,40394,HAIL AIRPORT,,SA,27.435,41.6902,1001,5,40394
,,40417,KING FAHD AIRPORT,,SA,26.4461,49.8097,14,5,40417
,,40430,AL MADINA AIRPORT,,SA,24.5588,39.6999,635,5,40430
,,40437,RIYADH/KING KHALID,,SA,24.9333,46.7167,624,5,40437
,,41024,KING ABDULAZIZ AIRPORT,,SA,21.6576,39.1857,16,5,41024
,,41112,ABHA,,SA,18.2333,42.65,2090,5,41112
,,63985,SEYCHELLES INTER. AIRPORT,,SE,-4.679,55.5308,4,5,63985
,,68263,PRETORIA (IRENE),,SF,-25.9105,28.2106,1524,5,68263
,,68424,UPINGTON,,SF,-28.4111,21.2641,840,5,68424
,,68442,BLOEMFONTEIN AIRPORT,,SF,-29.1039,26.2981,1354,5,68442
,,68512,SPRINGBOK,,SF,-29.6694,17.8788,1006,5,68512
,,68538,DE AAR,,SF,-30.6651,23.9927,1286,5,68538
,,68588,DURBAN/LOUIS BOTHA,,SF,-29.9667,30.95,8,5,68588
,,68592,KING SHAKA INT'L AIRPORT,,SF,-29.6018,31.1239,105,5,68592
,,68816,CAPE TOWN INTNL. AIRPORT,,SF,-33.9631,18.6023,42,5,68816
,,68842,PORT ELIZABETH,,SF,-33.9864,25.6164,59,5,68842
,,68994,MARION ISLAND,,SF,-46.8767,37.8587,24,5,68994
,,61641,DAKAR/YOFF,,SG,14.73,-17.5,24,5,61641
,,61660,DAKAR-DIASS-AIBD,,SG,14.6709,-17.0673,86,5,61660
,,61687,TAMBACOUNDA,,SG,13.7697,-13.6797,48,5,61687
,,61901,ST. HELENA IS.,,SH,-15.9419,-5.6672,435,5,61901
,,61902,WIDE AWAKE FIELD,,SH,-7.9667,-14.4,79,5,61902
,,68906,GOUGH ISLAND,,SH,-40.3495,-9.8804,54,5,68906
,,14015,LJUBLJANA/BEZIGRAD,,SI,46.0655,14.5124,299,5,14015
,,48698,SINGAPORE/CHANGI AIRPORT,,SN,1.3679,103.9824,14,5,48698
,,8001,LA CORUNA,,SP,43.3658,-8.4214,58,5,8001
,,8023,SANTANDER,,SP,43.4911,-3.8006,52,5,8023
,,8160,ZARAGOZA/AEROPUERTO,,SP,41.6606,-1.0042,263,5,8160
,,8190,BARCELONA SERVEI,,SP,41.3844,2.1181,95,5,8190
,,8221,MADRID/BARAJAS,,SP,40.4667,-3.5556,609,5,8221
,,8302,MALLORCA-SON BONET,,SP,39.6058,2.7067,41,5,8302
,,8383,HUELVA,,SP,37.2783,-6.9117,19,5,8383
,,8430,MURCIA,,SP,38.0019,-1.1708,61,5,8430
,,60018,TENERIFE-GUIMAR,,SP,28.3183,-16.3822,105,5,60018
,,62721,KHARTOUM,,SU,15.6,32.55,382,5,62721
,,1004,NY-ALESUND II,,SV,78.9233,11.9222,15,5,1004
,,1028,BJORNOYA,,SV,74.5167,19.0047,18,5,1028
,,2185,LULEA-KALLAX (2185-0),,SW,65.5433,22.1144,17,5,2185
,,2365,SUNDSVALL HARNOSAND (2365-0),,SW,62.5317,17.4361,3,5,2365
,,2527,GOTEBORG/LANDVETTER,,SW,57.6572,12.2911,164,5,2527
,,2591,VISBY AEROLOGISKA STATION,,SW,57.65,18.35,45,5,2591
,,6610,PAYERNE (6610-0),,SZ,46.8116,6.9425,490,5,6610
,,78970,PIARCO INT. AIRPORT; TRINIDAD,,TD,10.5917,-61.3432,12,5,78970
,,61976,SERGE-FROLOW (ILE TROMELIN),,TE,-15.8878,54.5206,7,5,61976
,,48327,CHIANG MAI,,TH,18.7706,98.9683,313,5,48327
,,48354,UDON THANI,,TH,17.3769,102.8094,177,5,48354
,,48378,PHITSANULOK,,TH,16.7961,100.2758,44,5,48378
,,48381,KHON KAEN,,TH,16.4608,102.7894,187,5,48381
,,48407,UBON RATCHATHANI,,TH,15.25,104.8667,122,5,48407
,,48431,NAKHON RATCHASIMA,,TH,14.9681,102.0858,186,5,48431
,,48453,BANGNA AGROMET,,TH,13.6664,100.6061,0,5,48453
,,48477,SATTAHIP,,TH,12.6914,100.9853,16,5,48477
,,48480,CHANTHA BURI,,TH,12.6094,102.1039,2,5,48480
,,48500,PRACHUAP KHIRIKHAN,,TH,11.835,99.8103,4,5,48500
,,48551,SURAT THANI,,TH,9.1342,99.1519,5,5,48551
,,48565,PHUKET AIRPORT,,TH,8.145,98.3144,5,5,48565
,,48568,SONGKHLA,,TH,7.1819,100.6075,4,5,48568
,,65387,LOME,,TO,6.1667,1.25,20,5,65387
,,60715,TUNIS-CARTHAGE,,TS,36.8507,10.2147,4,5,60715
,,60760,TOZEUR,,TS,33.9167,8.1667,86,5,60760
,,17030,SAMSUN,,TU,41.3442,36.2564,4,5,17030
,,17064,ISTANBUL BOLGE (KARTAL),,TU,40.9113,29.1558,18,5,17064
,,17095,ERZURUM BOLGE,,TU,39.9058,41.2544,1860,5,17095
,,17196,KAYSERI BALGE,,TU,38.687,35.5,1094,5,17196
,,17220,IZMIR/GUZELYALI,,TU,38.3949,27.0819,23,5,17220
,,17240,ISPARTA,,TU,37.7848,30.5679,997,5,17240
,,17281,DIYARBAKIR-BOLGE,,TU,37.9094,40.2133,680,5,17281
,,17351,ADANA/BOLGE,,TU,37.0041,35.3443,23,5,17351
,,91643,FUNAFUTI (91643-0),,TV,-8.5167,179.2167,1,5,91643
,,46734,MAKUNG AB (=593450),,TW,23.5833,119.6167,31,5,46734
,,46750,PINGTUNG SOUTH(AFB),,TW,22.6667,120.45,24,5,46750
,,46757,HSINCHU CITY,,TW,24.8333,120.0,27,5,46757
,,46780,LU-TAO,,TW,22.6833,121.5,280,5,46780
,,46810,DONGSHA (=597920),,TW,20.7167,116.7167,3,5,46810
,,58968,TAIBEI,,TW,25.0333,121.5167,9,5,58968
,,58974,PENGJIA YU,,TW,25.6333,122.0667,-999,5,58974
,,59362,HUALIAN,,TW,24.0167,121.6167,-999,5,59362
,,63894,DAR ES SALAAM INT,,TZ,-6.8761,39.2075,55,5,63894
,,78988,HATO AIRPORT; CURACAO,,UC,12.2,-68.9667,8,5,78988
,,63705,ENTEBBE AIRPORT,,UG,0.05,32.45,1155,5,63705
,,3005,LERWICK,,UK,60.1392,-1.1847,82,5,3005
,,3023,SOUTH UIST RANGE,,UK,57.3575,-7.385,4,5,3023
,,3238,ALBEMARLE,,UK,55.0197,-1.8817,142,5,3238
,,3354,NOTTINGHAM; WATNALL,,UK,53.0056,-1.2511,117,5,3354
,,3502,ABERPORTH,,UK,52.1394,-4.5711,133,5,3502
,,3559,CARDINGTON,,UK,52.1039,-0.4214,29,5,3559
,,3693,SHOEBURYNESS; LANDWICK,,UK,51.5547,0.8269,2,5,3693
,,3743,LARKHILL,,UK,51.2017,-1.8058,132,5,3743
,,3808,CAMBORNE,,UK,50.2183,-5.3275,87,5,3808
,,3882,HERSTMONCEUX,,UK,50.8994,0.3169,52,5,3882
,,3918,CASTOR BAY,,UK,54.5,-6.3333,18,5,3918
,,33317,SHEPETIVKA,,UP,50.1614,27.037,278,5,33317
,,33345,KYIV,,UP,50.3918,30.5356,167,5,33345
,,33393,LVIV,,UP,49.8075,23.9651,323,5,33393
,,33658,CHERNIVTSI,,UP,48.2665,25.9724,246,5,33658
,,33791,KRYVYI RIH,,UP,48.0537,33.2111,124,5,33791
,,33837,ODESA,,UP,46.4408,30.7703,42,5,33837
,,33946,SIMFEROPOL,,UP,45.0402,33.9672,181,5,33946
,,33966,BILOHIRSK,,UP,45.0454,34.5986,205,5,33966
,,34300,KHARKIV,,UP,49.928,36.2824,156,5,34300
PABR,BRW,70026,Barrow,AK,US,71.29,-156.77,7,5,BRW
,,70027,Barrow ARM-NSA,AK,US,71.3166666667,-156.616666667,7,8,
PAOT,OTZ,70133,Kotzebue,AK,US,66.87,-162.64,3,5,OTZ
PAOM,OME,70200,Nome,AK,US,64.5,-165.44,11,5,OME
PABE,BET,70219,Bethel,AK,US,60.78,-161.8,41,5,BET
PAMC,MCG,70231,McGrath,AK,US,62.95,-155.61,103,5,MCG
PAFA,FAI,70261,Fairbanks,AK,US,64.82,-147.87,132,5,FAI
PANC,ANC,70273,Anchorage,AK,US,61.17,-150.0,38,5,ANC
PASN,SNP,70308,St Paul Island,AK,US,57.15,-170.22,29,5,SNP
PACD,CDB,70316,Cold Bay,AK,US,55.21,-162.72,30,5,CDB
PAKN,AKN,70326,King Salmon,AK,US,58.68,-156.65,17,5,AKN
PADQ,ADQ,70350,Kodiak,AK,US,57.76,-152.5,34,5,ADQ
PAYA,YAK,70361,Yakutat,AK,US,59.52,-139.67,11,5,YAK
PANT,ANN,70398,Annette Island,AK,US,55.04,-131.57,36,5,ANN
PASY,SYA,70414,Shemya,AK,US,52.72,174.12,31,5,SYA
KEYW,EYW,72201,Key West,FL,US,24.55,-81.75,5,2,KEY
KMFL,MFL,72202,Miami,FL,US,25.75,-80.3666666667,5,8,MFL
KJAX,JAX,72206,Jacksonville,FL,US,30.4941,-81.6879,10,0,JAX
KCHS,CHS,72208,Charleston,SC,US,32.91,-80.03,13,1,CHS
KTBW,TBW,72210,Tampa,FL,US,27.7,-82.4,12,8,TBW
KTLH,TLH,72214,Tallahassee,FL,US,30.4,-84.35,19,3,TLH
KFFC,FFC,72215,Peachtree City,GA,US,33.35,-84.56,262,1,FFC
KVPS,VPS,72221,Eglin AFB,FL,US,30.48,-86.53,26,6,VPS
KBMX,BMX,72230,Birmingham,AL,US,33.1666666667,-86.7666666667,197,8,BMX
KLIX,LIX,72233,Slidell,LA,US,30.3333333333,-89.8333333333,7,8,LIX
KJAN,JAN,72235,Jackson,MS,US,32.33,-90.08,91,3,JAN
KLCH,LCH,72240,Lake Charles,LA,US,30.12,-93.22,4,3,LCH
KSHV,SHV,72248,Shreveport,LA,US,32.45,-93.83,83,3,SHV
KFWD,FWD,72249,Fort Worth,TX,US,32.8166666667,-97.2833333333,196,8,FWD
KBRO,BRO,72250,Brownsville,TX,US,25.9,-97.43,7,0,BRO
KCRP,CRP,72251,Corpus Christi,TX,US,27.77,-97.5,14,2,CRP
KDRT,DRT,72261,Del Rio,TX,US,29.38,-100.92,313,2,DRT
KMAF,MAF,72265,Midland,TX,US,31.933,-102.2,874,5,MAF
,,72274,AZ TUCSON; AZ,,US,32.2278,-110.9558,751,5,72274
KNKX,NKX,72293,San Diego,CA,US,32.88,-117.15,146,5,NKX
KMHX,MHX,72305,Morehead/Newport,NC,US,34.7666666667,-76.8666666667,9,8,MHX
KGSO,GSO,72317,Greensboro,NC,US,36.01,-79.95,275,3,GSO
KRNK,RNK,72318,Blacksburg,VA,US,37.2,-80.4,648,8,RNK
KBNA,BNA,72327,Nashville,TN,US,36.12,-86.68,210,2,BNA
KLZK,LZK,72340,Little Rock,AR,US,34.84,-92.25,173,8,LZK
KOUN,OUN,72357,Norman,OK,US,35.246,-97.472,357,3,OUN
KAMA,AMA,72363,Amarillo,TX,US,35.23,-101.7,1093,3,AMA
KEPZ,EPZ,72364,El Paso,TX,US,31.87,-106.7,1251,8,EPZ
KABQ,ABQ,72365,Albuquerque,NM,US,35.05,-106.62,1618,0,ABQ
KFGZ,FGZ,72376,Flagstaff,AZ,US,35.23,-111.82,2192,8,FGZ
KEDW,EDW,72381,Edwards AFB,CA,US,34.91,-117.87,702,3,EDW
KDRA,DRA,72387,Desert Research Lab,NV,US,36.62,-116.02,1006,5,DRA
KVEF,VEF,72388,Las Vegas,NV,US,36.05,-115.183333333,694,8,VEF
,,72391,CA POINT MUGU/NAS,,US,34.1167,-119.1167,4,5,72391
KVBG,VBG,72393,Vandenberg AFB,CA,US,34.75,-120.57,112,3,VBG
KWAL,WAL,72402,Wallops Island,VA,US,37.94,-75.47,14,5,WAL
KIAD,IAD,72403,Washington/Dulles,VA,US,38.96,-77.45,93,0,IAD
KILN,ILN,72426,Wilmington,OH,US,39.43,-83.8,322,3,ILN
KSGF,SGF,72440,Springfield,MO,US,37.23,-93.4,390,5,SGF
KDDC,DDC,72451,Dodge City,KS,US,37.78,-99.97,789,0,DDC
KTOP,TOP,72456,Topeka,KS,US,39.08,-95.62,268,3,TOP
KDNR,DNR,72469,Denver,CO,US,39.75,-104.866666667,1608,8,DNR
KGJT,GJT,72476,Grand Junction,CO,US,39.12,-108.53,1475,2,GJT
KREV,REV,72489,Reno,NV,US,39.5666666667,-119.8,1516,8,REV
KOAK,OAK,72493,Oakland,CA,US,37.7,-122.22,26,1,OAK
KOKX,OKX,72501,Brookhaven/Upton,NY,US,40.8666666667,-72.8666666667,26,8,OKX
KALB,ALB,72518,Albany,NY,US,42.76,-73.8,92,3,ALB
KPIT,PIT,72520,Pittsburgh,PA,US,40.51,-80.22,357,2,PIT
KBUF,BUF,72528,Buffalo,NY,US,42.94,-78.73,211,0,BUF
KOAX,OAX,72558,Omaha/Valley,NE,US,41.3166666667,-96.3666666667,350,8,OAX
KLBF,LBF,72562,North Platte,NE,US,41.14,-100.68,847,3,LBF
KSLC,SLC,72572,Salt Lake City,UT,US,40.79,-111.97,1286,0,SLC
KLKN,LKN,72582,Elko,NV,US,40.8666666667,-115.716666667,1608,8,LKN
KMFR,MFR,72597,Medford,OR,US,42.38,-122.87,396,0,MFR
KDTX,DTX,72632,Detroit,MI,US,42.71,-83.47,327,8,DTX
KAPX,APX,72634,Gaylord/Alpena,MI,US,44.9,-84.7166666667,446,8,APX
KGRB,GRB,72645,Green Bay,WI,US,44.48,-88.13,208,3,GRB
KMPX,MPX,72649,Twin Cities/Chanhassen,MN,US,44.85,-93.5666666667,288,8,MPX
KABR,ABR,72659,Aberdeen,SD,US,45.46,-98.43,397,3,ABR
KUNR,UNR,72662,Rapid City,SD,US,44.067,-103.200,1027,8,UNR
KRIW,RIW,72672,Riverton,WY,US,43.05,-108.45,1697,2,RIW
KBOI,BOI,72681,Boise,ID,US,43.58,-116.22,875,0,BOI
KSLE,SLE,72694,Salem,OR,US,44.93,-123.02,59,2,SLE
KCAR,CAR,72712,Caribou,ME,US,46.88,-68.02,191,0,CAR
KINL,INL,72747,International Falls,MN,US,48.58,-93.38,360,1,INL
KBIS,BIS,72764,Bismarck,ND,US,46.78,-100.75,505,0,BIS
KGGW,GGW,72768,Glasgow,MT,US,48.21,-106.63,694,2,GGW
KTFX,TFX,72776,Great Falls,MT,US,47.4666666667,-111.383333333,1132,8,TFX
KOTX,OTX,72786,Spokane,WA,US,47.68,-117.63,727,8,OTX
KUIL,UIL,72797,Quillayute,WA,US,47.96,-124.55,54,2,UIL
,,74001,AL REDSTONE ARSENAL; AL.,,US,34.6,-86.6333,175,5,74001
,,74002,MD ABERDEEN PRVGR,,US,39.5,-76.1667,5,5,74002
,,74003,UT DUGWAY PRVGR,,US,40.1667,-112.9333,1325,5,74003
K1Y7,1Y7,74004,Yuma,AZ,US,32.85,-114.4,231,8,1Y7
,,74005,AZ YUMA PRVGR,,US,32.8636,-114.033,231,5,74005
KGYX,GYX,74389,Gray,ME,US,43.9,-70.25,125,8,GYX
KDVN,DVN,74455,Davenport,IA,US,41.62,-90.58,230,3,DVN
KCHH,CHH,74494,Chatham,MA,US,41.68,-69.97,16,8,CHH
KILX,ILX,74560,Lincoln,IL,US,40.15,-89.3333333333,177,8,ILX
,,74612,CA CHINA LAKE; NAF; CA.,,US,35.6833,-117.6833,696,5,74612
KPSR,PSR,74626,Phoenix,AZ,US,33.4333333333,-112.016666667,342,8,74626
,,74646,OK LAMONT,,US,36.6,-97.5,306,5,74646
KXMR,XMR,74794,Cocoa Beach,FL,US,28.468,-80.567,3,8,XMR
PHLI,LIH,91165,Lihue,HI,US,21.98,-159.35,45,5,LIH
PHTO,ITO,91285,Hilo,HI,US,19.72,-155.07,12,5,ITO
,,43243,KAVALI,,UV,14.9167,0.008,17,5,43243
,,65503,OUAGADOUGOU,,UV,12.35,-1.5167,303,5,65503
,,65510,BOBO-DIOULASSO,,UV,11.1667,-4.3,432,5,65510
,,80413,MARACAY - B.A. SUCRE,,VE,10.25,-67.65,436,5,80413
,,80422,CARUPANO; SUCRE,,VE,10.6667,-63.25,10,5,80422
,,80447,SAN ANTONIO DEL TACHIRA,,VE,7.85,-72.45,377,5,80447
,,80450,SAN FERNANDO DE APURE,,VE,7.9,-67.4167,47,5,80450
,,80462,SANTA ELENA DE UAIREN,,VE,4.6,-61.1167,907,5,80462
,,48820,HA NOI,,VM,21.0333,105.8,5,5,48820
,,48839,BACH LONG VI (RADIOSONDE),,VM,20.1294,107.7226,7,5,48839
,,48845,VINH,,VM,18.6667,105.6833,5,5,48845
,,48855,DA NANG,,VM,16.0667,108.35,7,5,48855
,,48870,QUY NHON,,VM,13.7667,109.2167,4,5,48870
,,48877,NHA TRANG,,VM,12.2167,109.2167,3,5,48877
,,48887,PHAN THIET,,VM,10.9333,108.1,8,5,48887
,,48900,TAN SON HOA,,VM,10.8167,106.6667,5,5,48900
,,48914,CA MAU,,VM,9.1833,105.15,1,5,48914
,,68098,WALVIS BAY AIRPORT,,WA,-22.9833,14.65,88,5,68098
,,68110,WINDHOEK,,WA,-22.5667,17.1,1725,5,68110
,,68312,KEETMANSHOOP AIRPORT,,WA,-26.5333,18.1167,1064,5,68312
,,60096,DAKHLA,,WI,23.7111,-15.9308,11,5,60096
,,67774,HARARE (BELVEDERE),,ZI,-17.8318,31.0178,1471,5,67774
KTUS,TUS,,Tucson,AZ,US,32.12,-110.93,776,2,TUS
,LMN,74647,Lamont Profiler,OK,US,36.6833333333,-97.4666666667,306,8,LMN
CYYT,YYT,71801,St. Johns,NF,CA,47.62,-52.75,140,5,YYT
CYXE,YXE,71866,Saskatoon,SK,CA,52.18,-106.7,504,5,YXE
MMGL,GDL,,Guadalajara/Don Miguel,,MX,20.52,-103.32,1528,5,GDL
MMGM,GYM,,Guaymas,,MX,27.97,-110.93,20,5,GYM
MMGD,GUD,76151,Isla Guadalupe,,MX,29.1666666667,-118.316666667,25,8,GUD
MMSC,SOC,76723,Isla Socorro,,MX,18.7166666667,-110.95,35,8,SOC
MMLP,LAP,,La Paz,,MX,24.07,-110.37,21,1,LAP
MMZO,ZLO,,Manzanillo,,MX,19.15,-104.57,8,5,ZLO
MMMZ,MZT,,Mazatlan/Gen Buelna,,MX,23.17,-106.27,10,5,MZT
MMMX,MEX,,Mexico City/Licenci,,MX,19.43,-99.1,2238,1,MEX
MMTC,TRC,76382,Torreon,,MX,25.53,-103.45,1124,5,TRC
MMZC,ZCL,,Zacatecas,,MX,22.9,-102.68,2177,4,ZCL
